gnd_id	name	province_id	district_id	dsd_id	pd_id	gnd_num	lat	lng
LK-9103141	Amuhenkanda	LK-9	LK-91	LK-9103	EC-21A	146A	6.839661757575758	80.29120842424244
LK-9103143	Pathberiya	LK-9	LK-91	LK-9103	EC-21A	127	6.837128041420117	80.32670533727809
LK-9109051	Karandana South	LK-9	LK-91	LK-9109	EC-21A	143A	6.781259789772734	80.22255238068176
LK-5230105	Ninthavur 21	LK-5	LK-52	LK-5230	EC-13C	37F	7.342155647058824	81.84905317647059
LK-8230020	Hambegamuwa	LK-8	LK-82	LK-8230	EC-20C	149	6.509680958092493	80.91607157803459
LK-5124040	Kattankudy Division 3	LK-5	LK-51	LK-5124	EC-12C	165	7.6807587999999996	81.7267348
LK-5218070	Sammanthurai 10	LK-5	LK-52	LK-5218	EC-13B	92B	7.368287176470589	81.79906899999997
LK-7203010	Galoya	LK-7	LK-72	LK-7203	EC-18A	32	8.143617895569642	80.83272852848103
LK-4206075	Vidathaltheevu West	LK-4	LK-42	LK-4206	EC-11A	10	9.011310280653944	80.04208980653951
LK-2224170	Etanwala	LK-2	LK-22	LK-2224	EC-05B	E386	7.4765900197802155	80.77135832967024
LK-2224125	Rawanagama	LK-2	LK-22	LK-2224	EC-05B	E397A	7.542618315789475	80.86516678947366
LK-5233030	Oluvil 03	LK-5	LK-52	LK-5233	EC-13D	AD/35C	7.287646125000001	81.8614117916667
LK-5239055	Akkaraipattu 7/3	LK-5	LK-52	LK-5239	EC-13D	AV/07	7.212497055555556	81.84097055555556
LK-5215020	Gemunupura	LK-5	LK-52	LK-5215	EC-13A	W/89G	7.3019968666666655	81.66332086666665
LK-5233010	Oluvil 01	LK-5	LK-52	LK-5233	EC-13D	AD/35	7.288221449404771	81.8153153690476
LK-5130015	Munaikkadu East	LK-5	LK-51	LK-5130	EC-12C	133	7.626568166666668	81.70721788888892
LK-5242155	Wadinagala	LK-5	LK-52	LK-5242	EC-13D	W/26	7.11457280130292	81.5639116824104
LK-5203020	Kadirapura	LK-5	LK-52	LK-5203	EC-13A	142N	7.664412410163334	81.09672489292184
LK-5203025	Mawanagama	LK-5	LK-52	LK-5203	EC-13A	142I	7.636848563510394	81.06636430715935
LK-5203050	Paranagama	LK-5	LK-52	LK-5203	EC-13A	142C	7.566188076062621	81.06360875615212
LK-5203005	Rideela	LK-5	LK-52	LK-5203	EC-13A	142L	7.696013362110292	81.02730471462833
LK-5203045	Sandunpura	LK-5	LK-52	LK-5203	EC-13A	142E	7.595392315555551	81.09072439777785
LK-5203065	Wewmedagama	LK-5	LK-52	LK-5203	EC-13A	142A	7.534594983263595	81.04016899372388
LK-5218110	Veeramunai 03	LK-5	LK-52	LK-5218	EC-13B	92I	7.368488533333332	81.795193
LK-5209005	Bogamuyaya	LK-5	LK-52	LK-5209	EC-13A	144B/1	7.634676655882351	81.30255309411757
LK-5209050	Borapola	LK-5	LK-52	LK-5209	EC-13A	136A/1	7.500325728155336	81.39610065048538
LK-5209055	Kelavinna	LK-5	LK-52	LK-5209	EC-13A	136	7.503582344186039	81.36988163255806
LK-5209010	Tempitiya	LK-5	LK-52	LK-5209	EC-13A	145	7.617352721706867	81.39112025788512
LK-5230065	Ninthavur 18	LK-5	LK-52	LK-5230	EC-13C	37D	7.347918428571431	81.84854321428573
LK-5206100	Komana	LK-5	LK-52	LK-5206	EC-13A	139B	7.314630944839856	81.31486644128117
LK-5124045	Kattankudy Division 3 West	LK-5	LK-51	LK-5124	EC-12C	165A	7.680313681818183	81.72246409090909
LK-5218215	Malkampiddy	LK-5	LK-52	LK-5218	EC-13B	82	7.31840956652359	81.79665789270379
LK-5133030	Maavelkuda	LK-5	LK-51	LK-5133	EC-12C	107D	7.559487341597788	81.75415580440772
LK-5112025	Mavadivembu 2	LK-5	LK-51	LK-5112	EC-12B	197E	7.81779025	81.56513160000002
LK-5103045	Panichchankerny	LK-5	LK-51	LK-5103	EC-12A	211C	8.094509941653149	81.42957977471642
LK-5118225	Navatkudah East	LK-5	LK-51	LK-5118	EC-12C	168C	7.695785000000001	81.72275785714285
LK-5306005	Thennaimaravady	LK-5	LK-53	LK-5306	EC-14B	31 E	8.955427853115724	80.91496374777444
LK-5306030	Thiriyai	LK-5	LK-53	LK-5306	EC-14B	237	8.901552633663364	81.01468851881212
LK-5327015	Navarathnapuram	LK-5	LK-53	LK-5327	EC-14C	221A	8.490280844444435	81.33408311965816
LK-5315195	Manayaweli	LK-5	LK-53	LK-5315	EC-14B	244F	8.559147171021374	81.23687379809965
LK-5315150	Muththunagar	LK-5	LK-53	LK-5315	EC-14B	229F	8.555836058823543	81.14392813970588
LK-5315165	Nachchikuda	LK-5	LK-53	LK-5315	EC-14B	229C	8.535973784722216	81.18978641435181
LK-5315170	Wellaimanal	LK-5	LK-53	LK-5315	EC-14B	229	8.517846578947378	81.2009396611842
LK-7133080	Step2 part 1	LK-7	LK-71	LK-7133	EC-17F	251	8.320122789473682	80.40541989473684
LK-7115170	Thisawewa	LK-7	LK-71	LK-7115	EC-17C	295	8.340843653846152	80.3886715
LK-6236175	Egodayagama	LK-6	LK-62	LK-6236	EC-16C	535A	7.488970315789472	79.82691157894739
LK-7203085	Bathgampattuwa	LK-7	LK-72	LK-7203	EC-18A	58	8.029125523590338	80.88628687111638
LK-7203080	Mahasengama	LK-7	LK-72	LK-7203	EC-18A	30	8.009335756281398	80.82813730402013
LK-7203070	Minihirigama	LK-7	LK-72	LK-7203	EC-18A	60	8.049814900409274	80.87873193315131
LK-7203075	Moragaswewa	LK-7	LK-72	LK-7203	EC-18A	29	8.064407612368047	80.79410648265448
LK-7203005	Sinhagama	LK-7	LK-72	LK-7203	EC-18A	31	8.240397469835457	80.87307650457032
LK-7209020	Sungavila	LK-7	LK-72	LK-7209	EC-18B	137	8.099100857758641	81.13329600287356
LK-7215275	Kalahagala	LK-7	LK-72	LK-7215	EC-18C	166	7.830860664000004	80.95205610300005
LK-7215220	Sinha Udagama	LK-7	LK-72	LK-7215	EC-18C	157	7.900774023774133	80.94869637741463
LK-7210005	Sinhapura	LK-7	LK-72	LK-7210	EC-18C	286	8.122374807962535	81.25775078454332
LK-6154150	Iluppugedara	LK-6	LK-61	LK-6154	EC-15L	838	7.488413677419355	80.35390116129032
LK-6145226	Moragolla	LK-6	LK-61	LK-6145	EC-15F	1344	7.5890014999999975	80.1204933125
LK-6145227	Rideekanda	LK-6	LK-61	LK-6145	EC-15F	1342	7.584082229508197	80.10303204918036
LK-6145228	Thengodagedara	LK-6	LK-61	LK-6145	EC-15F	1341	7.583345791666667	80.09531158333334
LK-6163350	Polwatta	LK-6	LK-61	LK-6163	EC-15N	597	7.492672129032257	80.51730187096774
LK-6163255	Dedurunadeegama	LK-6	LK-61	LK-6163	EC-15N	611	7.507424764705882	80.45360547058823
LK-6163090	Kelemulla	LK-6	LK-61	LK-6163	EC-15N	541	7.593475285714285	80.56311838095239
LK-6203015	Anawasala	LK-6	LK-62	LK-6203	EC-16A	631A	8.256810424000005	79.76972492799999
LK-6163460	Mirissala	LK-6	LK-61	LK-6163	EC-15N	578	7.461680689655173	80.55080186206898
LK-6215005	Manalthivu	LK-6	LK-62	LK-6215	EC-16A	606	8.083136433283363	79.81719008995523
LK-6206020	Aluth Eluwankulama	LK-6	LK-62	LK-6206	EC-16A	635/1	8.271836177595619	79.8366836639345
LK-6206015	Parana Eluwankulama	LK-6	LK-62	LK-6206	EC-16A	635	8.328793876480535	79.85464433333314
LK-6206005	Pukkulama	LK-6	LK-62	LK-6206	EC-16A	634	8.485186059203441	79.88133335844987
LK-6206010	Ralmaduwa	LK-6	LK-62	LK-6206	EC-16A	635/2	8.385470048689141	79.94733654307109
LK-6163360	Pitiyegedara	LK-6	LK-61	LK-6163	EC-15N	595	7.487695611111111	80.51056811111111
LK-4139005	Mandaitivu East	LK-4	LK-41	LK-4139	EC-10A	J/7	9.627771351288049	80.00277999531625
LK-4139080	Pungudutivu North East	LK-4	LK-41	LK-4139	EC-10A	J/22	9.618024334685577	79.85345343610554
LK-4133010	Ariyalai East	LK-4	LK-41	LK-4133	EC-10I	J/90	9.632504061302694	80.0959432777778
LK-4130060	Thanankilappu	LK-4	LK-41	LK-4130	EC-10H	J/299	9.610047281468532	80.17924183216793
LK-4121175	Kapputhu	LK-4	LK-41	LK-4121	EC-10F	J/382	9.768546195298358	80.16493397649175
LK-5103030	Ooriyankattu	LK-5	LK-51	LK-5103	EC-12A	212B	8.117911002024286	81.41910809109307
LK-4509175	Urithirapuram North	LK-4	LK-45	LK-4509	EC-10K	KN/32	9.445466488200601	80.3327488731562
LK-4512020	Iranaitivu	LK-4	LK-45	LK-4512	EC-10K	KN/77	9.28768085374148	79.99230604761905
LK-4512050	Kowtharimunai	LK-4	LK-45	LK-4512	EC-10K	KN/68	9.590882593250466	80.09259712877439
LK-4512075	Nallur	LK-4	LK-45	LK-4512	EC-10K	KN/59	9.430887751633993	80.28230188235305
LK-4512095	Ponnaveli	LK-4	LK-45	LK-4512	EC-10K	KN/76	9.40126030062632	80.07720517536568
LK-4203145	South Bar	LK-4	LK-42	LK-4203	EC-11A	MN/73	8.963203603563485	79.893004207127
LK-4203025	Talaimannar South	LK-4	LK-42	LK-4203	EC-11A	MN/49	9.082569252173906	79.6841760608697
LK-4206025	Illupaikadavai	LK-4	LK-42	LK-4206	EC-11A	4	9.086740928853754	80.09613003359696
LK-4206065	Kovilkulam	LK-4	LK-42	LK-4206	EC-11A	9	9.038866492831556	80.0953575878134
LK-4206090	Pappamoddai	LK-4	LK-42	LK-4206	EC-11A	18	8.992914709622015	80.02019079209634
LK-4206095	Parappukadanthan West	LK-4	LK-42	LK-4206	EC-11A	35	8.951863165591384	80.05581306451617
LK-4206045	Periyamadhu East	LK-4	LK-42	LK-4206	EC-11A	17	9.006658441774515	80.15428012754161
LK-4512010	Cheddiakurichchi	LK-4	LK-45	LK-4512	EC-10K	KN/62	9.489707690807805	80.26363873259062
LK-4403060	Puthuvedduvan	LK-4	LK-44	LK-4403	EC-11C	MU/23	9.261427583153367	80.36596931965427
LK-4309050	Kallikulam	LK-4	LK-43	LK-4309	EC-11B	215C	8.820320219917011	80.5639138319503
LK-2133400	Bogahakanda	LK-2	LK-21	LK-2133	EC-04B	438	7.296327491525425	80.59997581355931
LK-9109052	Karandana West	LK-9	LK-91	LK-9109	EC-21A	143D	6.770656541284405	80.21176766972472
LK-9103146	Bodhimaluwa	LK-9	LK-91	LK-9103	EC-21A	146B	6.8220335352112675	80.29637928169015
LK-9103144	Parakaduwa	LK-9	LK-91	LK-9103	EC-21A	127A	6.826080953846153	80.30332066153841
LK-9103148	Pohorabawa	LK-9	LK-91	LK-9103	EC-21A	148	6.803869804597699	80.30507766666669
LK-9103142	Pathberiya West	LK-9	LK-91	LK-9103	EC-21A	127B	6.840422465346531	80.30337627722773
LK-9103147	Thalavitiya	LK-9	LK-91	LK-9103	EC-21A	146	6.824123936170212	80.28258106382974
LK-3136120	Harannagala	LK-3	LK-31	LK-3136	EC-07G	72B	6.182515655172412	80.09089812068966
LK-3309010	Kirinda	LK-3	LK-33	LK-3309	EC-09D	19	6.3792996325678715	81.49266008402927
LK-3215065	Kanahalagama	LK-3	LK-32	LK-3215	EC-08C	308B	6.114727378461538	80.49470381538461
LK-3215055	Uggashena	LK-3	LK-32	LK-3215	EC-08C	313D	6.112583005555564	80.52321847777772
LK-3215045	Wenagama	LK-3	LK-32	LK-3215	EC-08C	306B	6.132972299232733	80.51081134271095
LK-3248140	Dodampahala South	LK-3	LK-32	LK-3248	EC-08E	453D	5.961860826271182	80.71204811440683
LK-3236010	Pahala Vitiyala Central	LK-3	LK-32	LK-3236	EC-08D	343A	6.02846201619434	80.54797880161945
LK-3236125	Uduwa West	LK-3	LK-32	LK-3236	EC-08D	333B	5.999150987113416	80.57760261082478
LK-8103100	Dambana	LK-8	LK-81	LK-8103	EC-19A	7A	7.461228788712007	81.13636030390737
LK-2145275	Kandewela	LK-2	LK-21	LK-2145	EC-04G	1013	7.218604999999998	80.72718239655173
LK-1212100	Kurunduwatta	LK-1	LK-12	LK-1212	EC-02E	9B	7.257166333333332	80.14602208333332
LK-5218065	Sammanthurai 11	LK-5	LK-52	LK-5218	EC-13B	92C	7.367918588235295	81.7977239411765
LK-8203015	Bulupitiya	LK-8	LK-82	LK-8203	EC-20A	103B	7.190612328102707	81.36902965049924
LK-8227010	Katharagama	LK-8	LK-82	LK-8227	EC-20C	146	6.502655470383286	81.46724421718925
LK-8224140	Gonagan Ara	LK-8	LK-82	LK-8224	EC-20C	142B	6.586771076376547	81.34526177797518
LK-8224145	Rahathangama	LK-8	LK-82	LK-8224	EC-20C	143/A/3	6.545935599664988	81.23903503350077
LK-8206020	Inginiyagala	LK-8	LK-82	LK-8206	EC-20A	104A	7.210495807174891	81.52207416591934
LK-8206010	Mullegama	LK-8	LK-82	LK-8206	EC-20A	104	7.292061530642743	81.49354492526157
LK-8206005	Nelliyadda	LK-8	LK-82	LK-8206	EC-20A	104B	7.403594863741344	81.42203458660502
LK-8212230	Wattegama	LK-8	LK-82	LK-8212	EC-20B	124	6.757229343873516	81.45561373320169
LK-8221145	Uva kudaoya	LK-8	LK-82	LK-8221	EC-20C	150D	6.5299106550218315	81.17161417248906
LK-4212100	Umanagari	LK-4	LK-42	LK-4212	EC-11A	MN/103	8.847025370473542	79.93608091086354
LK-4212005	Vankalai North	LK-4	LK-42	LK-4212	EC-11A	MN/97	8.937861751708432	79.9113451480637
LK-1103120	Fort	LK-1	LK-11	LK-1103	EC-01B	None	6.945689302777766	79.83874916666674
LK-4415160	Mulliyawalai Centre	LK-4	LK-44	LK-4415	EC-11C	MU/106	9.17923953968254	80.73362688888889
LK-1206300	Raddolugama North A	LK-1	LK-12	LK-1206	EC-02C	199F	7.141330642857142	79.90414178571429
LK-1133175	Koralawella Eest	LK-1	LK-11	LK-1133	EC-01O	554B	6.762250870967742	79.89076048387096
LK-1221035	Dehiyagatha South	LK-1	LK-12	LK-1221	EC-02I	194A	7.097147785714286	79.88864407142856
LK-1221110	Ja-Ela	LK-1	LK-12	LK-1221	EC-02I	191A	7.0774276249999994	79.89413258333335
LK-1218215	Evariwatta	LK-1	LK-12	LK-1218	EC-02A	175 A	6.98178110483871	79.89280579838712
LK-1218110	Heenkenda	LK-1	LK-12	LK-1218	EC-02A	254	7.010073642201849	79.92529618348618
LK-1218095	Horape	LK-1	LK-12	LK-1218	EC-02A	180	7.019222526785714	79.92822016964283
LK-1218090	Horapethuduwa	LK-1	LK-12	LK-1218	EC-02A	180A	7.018152596685071	79.92194453591158
LK-1218135	Kerawalapitiya	LK-1	LK-12	LK-1218	EC-02A	171	7.009528326359829	79.88778078661095
LK-1218100	Kurukulawa North	LK-1	LK-12	LK-1218	EC-02A	250	7.0122004649681555	79.9336876878981
LK-1218105	Kurukulawa South	LK-1	LK-12	LK-1218	EC-02A	250A	7.010149109826593	79.93027061271682
LK-1218170	Mabola	LK-1	LK-12	LK-1218	EC-02A	176A	7.002538906249998	79.89579734999998
LK-1227685	Kirikittamulla South	LK-1	LK-12	LK-1227	EC-02G	309A	7.084393628571427	80.04555645714287
LK-1321370	Rajawatta Parana Kotasa	LK-1	LK-13	LK-1321	EC-03F	729H	6.576096249999999	79.99450125000001
LK-2124265	Kurukohogama	LK-2	LK-21	LK-2124	EC-04E	797	7.314287507462688	80.79841494029853
LK-2139055	Pahala Koorukuttala	LK-2	LK-21	LK-2139	EC-04K	118	7.251962278688527	80.53570770491807
LK-2139400	Pethiyagoda East	LK-2	LK-21	LK-2139	EC-04K	31	7.212919841269841	80.58974246031745
LK-2139180	Walgama	LK-2	LK-21	LK-2139	EC-04K	78	7.241299349206349	80.57009988888889
LK-1230345	Walaramba	LK-1	LK-12	LK-1230	EC-02K	398A	6.9938288888888875	80.06254786111113
LK-5230030	Ninthavur 13	LK-5	LK-52	LK-5230	EC-13C	40A	7.356592857142859	81.84891364285714
LK-5206005	Galode	LK-5	LK-52	LK-5206	EC-13A	141A	7.517539088709685	81.24891646451614
LK-5218160	Udanga 01	LK-5	LK-52	LK-5218	EC-13B	79B	7.361868419354838	81.79451825806453
LK-5104040	Mavadichenai	LK-5	LK-51	LK-5104	EC-12A	208A	7.909939411764706	81.52988747058822
LK-5242165	Bakmitiyawa	LK-5	LK-52	LK-5242	EC-13D	W/25B	7.03091214128036	81.63694365121418
LK-5136215	Thuraineelavanai North 1	LK-5	LK-51	LK-5136	EC-12C	74B	7.447202650000001	81.79862635
LK-5124055	Kattankudy Division 4	LK-5	LK-51	LK-5124	EC-12C	164	7.679553538461538	81.72815069230768
LK-6187400	Polgahawela South	LK-6	LK-61	LK-6187	EC-15K	938	7.326933030303032	80.3033796060606
LK-6236070	Rathnagiriya	LK-6	LK-62	LK-6236	EC-16C	545B	7.529385294117649	79.90109982352942
LK-4506075	Umaiyalpuram	LK-4	LK-45	LK-4506	EC-10K	KN/45	9.475657891041168	80.39373706295412
LK-6206035	Karathivu South	LK-6	LK-62	LK-6206	EC-16A	636	8.192864932735421	79.81537131988048
LK-4312080	Cheddikulam	LK-4	LK-43	LK-4312	EC-11B	211A	8.658884068965518	80.31922031034482
LK-9142110	Godakawela	LK-9	LK-91	LK-9142	EC-21E	237A	6.506061652173913	80.64959008695651
LK-9103149	Miyanadeniya	LK-9	LK-91	LK-9103	EC-21A	148A	6.776319436974786	80.30983984033611
LK-3333350	Mawella North	LK-3	LK-33	LK-3333	EC-09C	292	5.993391692307695	80.74226430769232
LK-3239190	Mirissa South 2	LK-3	LK-32	LK-3239	EC-08G	406A	5.948095713740461	80.45213769847321
LK-2148065	Karagaskada South	LK-2	LK-21	LK-2148	EC-04L	1042	7.174946895833334	80.70465760416666
LK-2115070	Panvila	LK-2	LK-21	LK-2115	EC-04C	729	7.365781080357142	80.71709272321434
LK-2133280	Etamurungagoda	LK-2	LK-21	LK-2133	EC-04B	414	7.325735451923076	80.61476317307691
LK-9227135	Ganepalla	LK-9	LK-92	LK-9227	EC-22G	135	7.011676879781415	80.35392720765024
LK-5236065	Akkaraipattu 11	LK-5	LK-52	LK-5236	EC-13B	AP/15/2	7.226730199999998	81.85949466666666
LK-2109125	Delgasthenna	LK-2	LK-21	LK-2109	EC-04B	572	7.377109365079364	80.62355004761905
LK-2133155	Endaruthenna	LK-2	LK-21	LK-2133	EC-04B	464	7.33795057894737	80.59185436842105
LK-2148020	Udadelthota	LK-2	LK-21	LK-2148	EC-04L	976	7.19525109958506	80.68105414522819
LK-5110065	Santhiveli	LK-5	LK-51	LK-5110	EC-12A	200	7.843020647058823	81.54593647058823
LK-2112235	Nawayalathenna	LK-2	LK-21	LK-2112	EC-04C	608	7.329744321428572	80.63461299999999
LK-2142005	Galoya	LK-2	LK-21	LK-2142	EC-04L	1162	7.2207589375	80.61963811805555
LK-2142125	Panvilathenna	LK-2	LK-21	LK-2142	EC-04L	1147	7.162761366972475	80.63781981651375
LK-9227020	Garagoda pahala	LK-9	LK-92	LK-9227	EC-22G	115C	7.026758741935486	80.28366134677421
LK-5239090	Kolavil 01	LK-5	LK-52	LK-5239	EC-13D	AV/16	7.192452772727271	81.85339054545456
LK-2142010	Haloya	LK-2	LK-21	LK-2142	EC-04L	1160	7.218724711009175	80.62596082568807
LK-5242060	Kalugolla	LK-5	LK-52	LK-5242	EC-13D	W/28E	7.21061109815951	81.54975965644171
LK-5124010	Kattankudy division 1 South	LK-5	LK-51	LK-5124	EC-12C	167E	7.683218111111112	81.72239505555555
LK-2142150	Hunugala	LK-2	LK-21	LK-2142	EC-04L	1142	7.139675766816142	80.67433709865477
LK-5218045	Sammanthurai 05	LK-5	LK-52	LK-5218	EC-13B	78B	7.370869555555554	81.80507694444447
LK-9148195	Julangete	LK-9	LK-91	LK-9148	EC-21H	215C	6.244019695035459	80.9409940921986
LK-5124015	Kattankudy Division 2	LK-5	LK-51	LK-5124	EC-12C	166	7.682684916666667	81.72615341666666
LK-2142160	Pupuressa	LK-2	LK-21	LK-2142	EC-04L	1181	7.120398202572345	80.67783032154337
LK-5110075	Thevapuram	LK-5	LK-51	LK-5110	EC-12A	199A	7.828967820512821	81.56684020512822
LK-5221075	Kalmunai  01B	LK-5	LK-52	LK-5221	EC-13C	KP/61/3	7.41945075	81.82564279166665
LK-2154090	Alugolla	LK-2	LK-21	LK-2154	EC-04M	1051	7.09582997938144	80.48425696391756
LK-2154015	Galpaya	LK-2	LK-21	LK-2154	EC-04M	1066	7.141327772413794	80.54330297931031
LK-5236140	Town Division 04	LK-5	LK-52	LK-5236	EC-13B	AP/15A/3	7.217389437499998	81.85450021874999
LK-5127125	Araipattai North	LK-5	LK-51	LK-5127	EC-12C	157D	7.670821052631578	81.73249478947366
LK-2154155	Miyanagolla	LK-2	LK-21	LK-2154	EC-04M	1050	7.07844779640719	80.47375253892214
LK-2133200	Wathuwala	LK-2	LK-21	LK-2133	EC-04B	490	7.32390630769231	80.60037027692304
LK-2154115	Udagama	LK-2	LK-21	LK-2154	EC-04M	1069	7.119323089285716	80.56333799107144
LK-2133380	Banwelgolla	LK-2	LK-21	LK-2133	EC-04B	431	7.302824600000001	80.61896964615384
LK-2154080	Patithalawa	LK-2	LK-21	LK-2154	EC-04M	1048	7.109647203045678	80.46682844670053
LK-2154050	Pellapitiya North	LK-2	LK-21	LK-2154	EC-04M	1065	7.128562924999996	80.54564634166664
LK-2133035	Bothota	LK-2	LK-21	LK-2133	EC-04B	483	7.3572727083333325	80.58215851388891
LK-2154140	Pitakanda	LK-2	LK-21	LK-2154	EC-04M	1054	7.092446499999997	80.52782547572815
LK-2154130	Sinhapura	LK-2	LK-21	LK-2154	EC-04M	1076	7.127273636363638	80.56878051948055
LK-2133340	Bulathgolla	LK-2	LK-21	LK-2133	EC-04B	444	7.300310189655173	80.58780837931033
LK-5330015	Sivapuram	LK-5	LK-53	LK-5330	EC-14A	217F	8.364924294117646	81.27529223529413
LK-2154075	Uduwella	LK-2	LK-21	LK-2154	EC-04M	1052	7.1110452966101585	80.49394897033892
LK-2154100	Yatapana	LK-2	LK-21	LK-2154	EC-04M	1056	7.115317089887636	80.5225064719101
LK-2133060	Attaragama South	LK-2	LK-21	LK-2133	EC-04B	482	7.348142719298243	80.5951543508772
LK-2133410	Haloluwa	LK-2	LK-21	LK-2133	EC-04B	435	7.294273516483513	80.60920709890112
LK-2133395	Haloluwa Pallegama	LK-2	LK-21	LK-2133	EC-04B	434	7.304333881188116	80.60280565346528
LK-5315205	Arunagirinagar	LK-5	LK-53	LK-5315	EC-14B	244G	8.569021393939396	81.23374692424245
LK-2133240	Karanduwawala Pahala	LK-2	LK-21	LK-2133	EC-04B	478	7.323277385964915	80.5573041754386
LK-2133390	Pallemulla	LK-2	LK-21	LK-2133	EC-04B	432	7.299150266666666	80.61144301666664
LK-2133290	Katugasthota	LK-2	LK-21	LK-2133	EC-04B	413	7.325558395348837	80.6228864883721
LK-2133215	Mapamadulla	LK-2	LK-21	LK-2133	EC-04B	450	7.321272813559321	80.58813040677965
LK-7163085	Galnewa Town	LK-7	LK-71	LK-7163	EC-17E	477	8.04238173076923	80.48565726923076
LK-2134160	Welivita Pahalagama	LK-2	LK-21	LK-2134	EC-04A	352	7.321955032258066	80.51113148387095
LK-2133260	Kulugammana	LK-2	LK-21	LK-2133	EC-04B	447	7.315743810810807	80.59176887387389
LK-2133325	Kurundugahamada	LK-2	LK-21	LK-2133	EC-04B	448	7.3098230666666675	80.58975371111111
LK-2133145	Nugawela	LK-2	LK-21	LK-2133	EC-04B	452	7.328564647058821	80.59018992941178
LK-2133245	Owathenna	LK-2	LK-21	LK-2133	EC-04B	479	7.324512206185565	80.55233720618556
LK-5224010	Periyaneelavanai  Muslim Section	LK-5	LK-52	LK-5224	EC-13C	KP/72A	7.440435684210526	81.82070010526316
LK-2133175	Pallebokalawela	LK-2	LK-21	LK-2133	EC-04B	412	7.3429019137931055	80.61339505172414
LK-2133075	Rajapihilla	LK-2	LK-21	LK-2133	EC-04B	463	7.341583371428575	80.59511888571427
LK-2133330	Seewaleekanda	LK-2	LK-21	LK-2133	EC-04B	446	7.305028145161289	80.59206766129032
LK-2133355	Udamulla	LK-2	LK-21	LK-2133	EC-04B	433	7.304407762500003	80.60829425
LK-5318015	Puthukudiyirippu	LK-5	LK-53	LK-5318	EC-14A	228J	8.499410227272728	81.1011632272727
LK-2134210	Dehideniya Madige	LK-2	LK-21	LK-2134	EC-04A	386	7.316928822916665	80.45889753125003
LK-2136145	Doluwa East	LK-2	LK-21	LK-2136	EC-04J	213	7.289358585714288	80.52075885714287
LK-2134130	Sivurupitiya	LK-2	LK-21	LK-2134	EC-04A	339	7.332954652173914	80.51602749275364
LK-2134045	Polwatta	LK-2	LK-21	LK-2134	EC-04A	323	7.343343555555554	80.48197865432097
LK-7203205	Unagalavehera West	LK-7	LK-72	LK-7203	EC-18A	51	8.020087000000002	80.98914760185185
LK-2127300	Dambarawa	LK-2	LK-21	LK-2127	EC-04F	706	7.298792863636364	80.69046992424246
LK-2130085	Asgiriya	LK-2	LK-21	LK-2130	EC-04I	235	7.300670535353537	80.631571989899
LK-2134145	Walpalagolla North	LK-2	LK-21	LK-2134	EC-04A	395	7.321078549019605	80.5402066862745
LK-2134155	Walpalagolla South	LK-2	LK-21	LK-2134	EC-04A	396	7.3202916906474815	80.53634797841727
LK-2134125	Welivita Ihalagama	LK-2	LK-21	LK-2134	EC-04A	338	7.3328047572815525	80.50369033009703
LK-1212335	Lindara Ihala	LK-1	LK-12	LK-1212	EC-02E	16C	7.225237809523807	80.14486685714287
LK-2130090	Bahirawa Kanda	LK-2	LK-21	LK-2130	EC-04I	236	7.296101442748091	80.62733899999998
LK-2130145	Bogambara	LK-2	LK-21	LK-2130	EC-04I	264	7.2877539887640514	80.63518398876403
LK-2127205	Deekirimadawala	LK-2	LK-21	LK-2127	EC-04F	659	7.304168774193552	80.66752172580648
LK-2130205	Bowala	LK-2	LK-21	LK-2130	EC-04I	245	7.2705873944954105	80.61581661467896
LK-2130180	Gatambe	LK-2	LK-21	LK-2130	EC-04I	259	7.274307769230763	80.60607811794875
LK-2130275	Gurudeniya East	LK-2	LK-21	LK-2130	EC-04H	276	7.265571283464565	80.70382704724408
LK-2130270	Gurudeniya West	LK-2	LK-21	LK-2130	EC-04H	278	7.269696111111108	80.68267016049383
LK-2109025	Alawathugoda	LK-2	LK-21	LK-2109	EC-04B	583	7.41058772839506	80.6088258518519
LK-2130220	Hanthna Pedesa	LK-2	LK-21	LK-2130	EC-04I	263	7.274401986301368	80.63745863013696
LK-2130280	Maligathenna	LK-2	LK-21	LK-2130	EC-04H	279	7.259089673267319	80.70805388118812
LK-5118095	Iruthayapuram East	LK-5	LK-51	LK-5118	EC-12C	173B	7.729537096774194	81.69106409677418
LK-1309010	Pahala Millewa North	LK-1	LK-13	LK-1309	EC-03C	628C	6.798195622047244	80.08557319685033
LK-1321435	Ethagama East	LK-1	LK-13	LK-1321	EC-03F	732	6.5512839199999995	79.98370421333335
LK-2109040	Arambepola	LK-2	LK-21	LK-2109	EC-04B	584	7.393663672131146	80.61406408196721
LK-7210060	Muthugala	LK-7	LK-72	LK-7210	EC-18C	264	7.975213960000002	81.15500567999999
LK-5225085	Sainthamaruthu 16	LK-5	LK-52	LK-5225	EC-13C	KP/47C	7.388323749999998	81.83648558333334
LK-2130215	Heeressagala	LK-2	LK-21	LK-2130	EC-04I	242	7.2705918228571464	80.62945447428572
LK-2109030	Balakaduwa	LK-2	LK-21	LK-2109	EC-04B	585	7.411240531914891	80.61507831914894
LK-2130040	Mahaweli Uyana	LK-2	LK-21	LK-2130	EC-04H	231	7.318766194029849	80.64302191044777
LK-2303315	Wijayabahu Kanda	LK-2	LK-23	LK-2303	EC-06B	467A	7.006057891891889	80.62542768918918
LK-2130265	Ulpathakumbura	LK-2	LK-21	LK-2130	EC-04H	273	7.266498641666669	80.67073202500004
LK-2130025	Wattaranthenna	LK-2	LK-21	LK-2130	EC-04I	238	7.309383287356323	80.62723975862072
LK-2127390	Aluth Pallekele	LK-2	LK-21	LK-2127	EC-04F	694	7.26999734375	80.74777057291662
LK-2127400	Ambakote	LK-2	LK-21	LK-2127	EC-04F	695	7.27365080645161	80.7329743978495
LK-2127215	Galapitaambe	LK-2	LK-21	LK-2127	EC-04F	663	7.301337483333331	80.67806265
LK-2139205	Wattappola	LK-2	LK-21	LK-2139	EC-04K	123	7.235396060606057	80.54457228787876
LK-2127025	Galpihilla	LK-2	LK-21	LK-2127	EC-04F	646	7.352400059523809	80.70896429761905
LK-2127260	Gonawala South	LK-2	LK-21	LK-2127	EC-04F	719	7.305019032608698	80.7346943043478
LK-2127210	Hapuwala	LK-2	LK-21	LK-2127	EC-04F	658	7.299499467741938	80.67102309677423
LK-7151090	Thirappane Kadaweediya	LK-7	LK-71	LK-7151	EC-17F	532	8.218098	80.52270387499999
LK-2127220	Hathamuna	LK-2	LK-21	LK-2127	EC-04F	707	7.3014239736842095	80.68532903947369
LK-2127240	Hurikaduwa Madige	LK-2	LK-21	LK-2127	EC-04F	704	7.302042645833336	80.71017231249999
LK-2127360	Kundasale South	LK-2	LK-21	LK-2127	EC-04F	692	7.2800960821256	80.70313265700482
LK-5221035	Pandiruppu 01B	LK-5	LK-52	LK-5221	EC-13C	KP/66/3	7.427874576923077	81.81630649999998
LK-2127310	Mahawatta East	LK-2	LK-21	LK-2127	EC-04F	690	7.2923567500000015	80.68580182499998
LK-2124440	Bambaragahadeniya	LK-2	LK-21	LK-2124	EC-04E	818	7.24784376724138	80.83435950862065
LK-2109095	Bulugohothenna	LK-2	LK-21	LK-2109	EC-04B	559	7.371016924528302	80.61097501886792
LK-2127040	Pallegama	LK-2	LK-21	LK-2127	EC-04F	670	7.335619117647059	80.69308272549019
LK-5136110	Eruvil East	LK-5	LK-51	LK-5136	EC-12C	115B	7.5053490384615404	81.78775842307692
LK-2127135	Pilawala North	LK-2	LK-21	LK-2127	EC-04F	660	7.305169402439028	80.67429712195121
LK-2303375	Labukele	LK-2	LK-23	LK-2303	EC-06B	474I	7.028362785714284	80.71569229365079
LK-2127305	Pilawala South	LK-2	LK-21	LK-2127	EC-04F	662	7.297127256756758	80.68286466216217
LK-4215050	Ahathimurippu	LK-4	LK-42	LK-4215	EC-11A	MN/143	8.73385399319728	79.99454296598638
LK-2124030	Bulathwatta	LK-2	LK-21	LK-2124	EC-04E	749	7.363324186440679	80.772477220339
LK-1230665	Samanabedda	LK-1	LK-12	LK-1230	EC-02K	416	6.917594486842108	80.08682286842107
LK-2124195	Embalagama	LK-2	LK-21	LK-2124	EC-04E	777	7.328604107142858	80.780063125
LK-2124220	Gangasirigama	LK-2	LK-21	LK-2124	EC-04E	760	7.324223571428573	80.7502096857143
LK-2124310	Meegahamaditta	LK-2	LK-21	LK-2124	EC-04E	770	7.284553342105264	80.7932658026316
LK-2124410	Moragahamula	LK-2	LK-21	LK-2124	EC-04E	812	7.277132353846156	80.81054786153847
LK-2124035	Galabadawatta	LK-2	LK-21	LK-2124	EC-04E	743	7.3677771139240535	80.77473069620251
LK-2109135	Deegala	LK-2	LK-21	LK-2109	EC-04B	576	7.3810429428571425	80.63618637142858
LK-2124045	Galkotuwa	LK-2	LK-21	LK-2124	EC-04E	746	7.3650501940298545	80.75343291044778
LK-2124115	Giddawa-Waradiwela	LK-2	LK-21	LK-2124	EC-04E	752	7.347475757575759	80.75979740909091
LK-2109045	Delgasgoda	LK-2	LK-21	LK-2109	EC-04B	588	7.396570173913041	80.60413200000002
LK-2154120	Ethgala West	LK-2	LK-21	LK-2154	EC-04M	1075	7.13181902	80.56287633999999
LK-2124350	Hijrapura	LK-2	LK-21	LK-2124	EC-04E	832	7.296553978260872	80.74763023913046
LK-2109050	Dippitiya	LK-2	LK-21	LK-2109	EC-04B	586	7.386802510638301	80.60647238297871
LK-2124085	Hakmana	LK-2	LK-21	LK-2124	EC-04E	800	7.32863621245421	80.8188461098901
LK-9227145	Gonagamuwa	LK-9	LK-92	LK-9227	EC-22G	133	7.011431984615384	80.38089116153846
LK-2124170	Kandekumbura	LK-2	LK-21	LK-2124	EC-04E	802	7.319962967592594	80.82950942592586
LK-2124270	Kiribattalawa	LK-2	LK-21	LK-2124	EC-04E	798	7.306140318840578	80.80203311594205
LK-4403020	Aninchiyankulam	LK-4	LK-44	LK-4403	EC-11C	MU/31	9.13312877419355	80.31169001612909
LK-2124360	Maberiyathenna	LK-2	LK-21	LK-2124	EC-04E	827	7.268186360655732	80.77166545901639
LK-2124375	Senarathwela	LK-2	LK-21	LK-2124	EC-04E	828	7.281243784313728	80.76450760784314
LK-9215165	Holombuwa	LK-9	LK-92	LK-9215	EC-22B	67B	7.195554177083338	80.27435082291663
LK-2139455	Ketakumbura	LK-2	LK-21	LK-2139	EC-04K	56	7.211060567164177	80.5737053731343
LK-1230340	Putupagala	LK-1	LK-12	LK-1230	EC-02K	396	6.994041083333332	80.07106933333328
LK-2124135	Weliketiya	LK-2	LK-21	LK-2124	EC-04E	754	7.341643230769233	80.75868432307693
LK-2312255	Nagasena	LK-2	LK-23	LK-2312	EC-06A	475H	6.906407048128351	80.68595925668454
LK-2109115	Dodangolla	LK-2	LK-21	LK-2109	EC-04B	563	7.36424816901409	80.61535539436626
LK-2121085	Ambagolla	LK-2	LK-21	LK-2121	EC-04D	913	7.4172326530612285	80.94994260204075
LK-2103120	Galagedara Madige	LK-2	LK-21	LK-2103	EC-04A	368	7.374592586206896	80.51524193103448
LK-2121240	Bembiya	LK-2	LK-21	LK-2121	EC-04D	945	7.21999584722222	80.95645130208322
LK-2121175	Bulathwelkandura	LK-2	LK-21	LK-2121	EC-04D	932	7.325163835390944	80.97032913168715
LK-9136080	Halkandaliya	LK-9	LK-91	LK-9136	EC-21F	176D	6.584544333333337	80.4472928571429
LK-2139550	Pitawalawatta	LK-2	LK-21	LK-2139	EC-04K	43	7.205047070175439	80.5982806140351
LK-2121010	Dungolla	LK-2	LK-21	LK-2121	EC-04D	900	7.452761680365297	80.90487491324205
LK-2121015	Thotillagas Ella	LK-2	LK-21	LK-2121	EC-04D	904	7.470008830357137	80.92980253571427
LK-2133415	Kumburegedara	LK-2	LK-21	LK-2133	EC-04B	441	7.288906166666665	80.60494525
LK-2121160	Gurulupotha	LK-2	LK-21	LK-2121	EC-04D	927	7.341099980769236	80.93405948076916
LK-2109145	Dunuvila North	LK-2	LK-21	LK-2109	EC-04B	578	7.380610309999997	80.65212112999997
LK-2121135	Hasalaka	LK-2	LK-21	LK-2121	EC-04D	924	7.367672319852933	80.96469254411758
LK-9148030	Kolambage Ara	LK-9	LK-91	LK-9148	EC-21H	224C	6.4305151538461525	80.78299016346152
LK-5221120	Kalmunai  01E	LK-5	LK-52	LK-5221	EC-13C	KP/61/6	7.417074714285715	81.83446792857144
LK-2121235	Kolonyaya	LK-2	LK-21	LK-2121	EC-04D	944	7.241281650000012	80.97029790909095
LK-9227045	Jayavinda Gama	LK-9	LK-92	LK-9227	EC-22G	132B	7.051880747311828	80.32963443548383
LK-2121190	Lunumadalaketiya	LK-2	LK-21	LK-2121	EC-04D	935	7.283341296296287	80.96799043703697
LK-3321035	Kaluwagahayaya	LK-3	LK-33	LK-3321	EC-09A	427	6.2238972830188635	80.80139133018865
LK-5124020	Kattankudy Division 2 North	LK-5	LK-51	LK-5124	EC-12C	166A	7.68663512	81.72763512
LK-2115050	Hathale	LK-2	LK-21	LK-2115	EC-04C	732	7.3828845288461515	80.72340756250006
LK-2121230	Minipe	LK-2	LK-21	LK-2121	EC-04D	943	7.221142102564104	80.99244788888892
LK-1230325	Pelpita	LK-1	LK-12	LK-1230	EC-02K	393	6.993136999999997	80.11004005882353
LK-9227015	Kabulumulla	LK-9	LK-92	LK-9227	EC-22G	106B	7.040875551912565	80.28344713661204
LK-2121045	Pallegaladebokka	LK-2	LK-21	LK-2121	EC-04D	901	7.427164848101268	80.91357215189873
LK-2121185	Morayaya	LK-2	LK-21	LK-2121	EC-04D	934	7.299008743589744	80.9707326080586
LK-3106045	Mahapitiya	LK-3	LK-31	LK-3106	EC-07A	17B	6.33678504347826	80.0469232695652
LK-5218080	Sammanthurai 07	LK-5	LK-52	LK-5218	EC-13B	80A	7.367706217391306	81.80250134782612
LK-2121140	Pallewatta	LK-2	LK-21	LK-2121	EC-04D	930	7.354112319767445	80.96523821511633
LK-4306025	Pavakkulam South Bank - Track 07	LK-4	LK-43	LK-4306	EC-11B	C209D	8.690277392857135	80.37684489795917
LK-3330065	Dammulla West	LK-3	LK-33	LK-3330	EC-09B	318	6.074030064516126	80.72469287096773
LK-2121020	Palugolla	LK-2	LK-21	LK-2121	EC-04D	906	7.482557888888883	80.94575507407407
LK-4306035	Acres 20 - 40 - 60	LK-4	LK-43	LK-4306	EC-11B	C209F	8.675737030864202	80.39332822839503
LK-2109150	Dunuvila South	LK-2	LK-21	LK-2109	EC-04B	579	7.374638900000001	80.64947484444443
LK-5124035	Kattankudy Division 3 East	LK-5	LK-51	LK-5124	EC-12C	165B	7.682151666666666	81.72968905555553
LK-2121120	Thorapitiya	LK-2	LK-21	LK-2121	EC-04D	919	7.375344384615384	80.93790616239315
LK-3136435	Gammeddegoda East	LK-3	LK-31	LK-3136	EC-07G	47B	6.089949689655173	80.14293324137931
LK-5215030	Nawagampura	LK-5	LK-52	LK-5215	EC-13A	W/89I	7.298796234567904	81.69358600000002
LK-2109080	Hureegolla	LK-2	LK-21	LK-2109	EC-04B	571	7.384496850746268	80.621375238806
LK-2133370	Polwatta	LK-2	LK-21	LK-2133	EC-04B	420	7.315936383333335	80.62163741666667
LK-3136415	Ganegoda	LK-3	LK-31	LK-3136	EC-07G	44B	6.091322958041958	80.15599629370631
LK-6142035	Pahala Kiniyama	LK-6	LK-61	LK-6142	EC-15G	1449	7.649737025862073	80.01103081896548
LK-6145195	Hettigama	LK-6	LK-61	LK-6145	EC-15F	1418	7.592654285714283	80.04463380952382
LK-2109035	Mawathupola	LK-2	LK-21	LK-2109	EC-04B	580	7.40176261111111	80.6195710833333
LK-1230415	Wedagama	LK-1	LK-12	LK-1230	EC-02K	379D	6.985620518518516	80.15289471604939
LK-2121055	Udattawa	LK-2	LK-21	LK-2121	EC-04D	912	7.4143572907488995	80.93174853744488
LK-1230475	Wanaluwawa North	LK-1	LK-12	LK-1230	EC-02K	408	6.979357357142861	80.07597130612241
LK-2121110	Welgala	LK-2	LK-21	LK-2121	EC-04D	923	7.3881395771144245	80.9720737611941
LK-3312015	Thammennawa	LK-3	LK-33	LK-3312	EC-09D	86	6.253165773584903	81.14876115723278
LK-3227115	Mapalana Mangin Ihala	LK-3	LK-32	LK-3227	EC-08D	331D	6.05131765217391	80.56942785507245
LK-2115005	Kelebokka	LK-2	LK-21	LK-2115	EC-04C	735	7.442375141078835	80.72428992946053
LK-6145305	Ihala Gomugomuwa	LK-6	LK-61	LK-6145	EC-15F	1395	7.512851254545456	80.0705918909091
LK-3233045	Boraluketiya	LK-3	LK-32	LK-3233	EC-08D	290A	6.057274324675323	80.66522590909094
LK-9227095	Kirikohuthenna	LK-9	LK-92	LK-9227	EC-22G	134I	7.024168189573459	80.39783426066352
LK-6149025	Mahakeliya	LK-6	LK-61	LK-6149	EC-15K	1212	7.579947236842101	80.28116931578946
LK-2115015	Mahapathana	LK-2	LK-21	LK-2115	EC-04C	733	7.413582550724643	80.72617880434784
LK-2115020	Kosgama	LK-2	LK-21	LK-2115	EC-04C	739	7.417092086092713	80.75333571523178
LK-2157100	Balanthota South	LK-2	LK-21	LK-2157	EC-04M	1092	7.028319061855671	80.49951135051545
LK-2115045	Madulkele	LK-2	LK-21	LK-2115	EC-04C	731	7.399458063636362	80.72528007272736
LK-6148140	Kandegedara	LK-6	LK-61	LK-6148	EC-15F	1380	7.535621000000003	80.16197605882353
LK-3233090	Kirinda Mangin Ihala South	LK-3	LK-32	LK-3233	EC-08D	325B	6.035343136752138	80.61896155555559
LK-1230015	Wathurugama	LK-1	LK-12	LK-1230	EC-02K	293	7.054659693877553	80.10739773469388
LK-5225010	Sainthamaruthu 02	LK-5	LK-52	LK-5225	EC-13C	KP/53A	7.3992761666666675	81.84028641666666
LK-6149085	Weudagama	LK-6	LK-61	LK-6149	EC-15K	1227	7.5372668048780485	80.19890929268293
LK-2109100	Kasawatta	LK-2	LK-21	LK-2109	EC-04B	560	7.372764482758623	80.60134680459774
LK-9148130	Modarawana	LK-9	LK-91	LK-9148	EC-21H	214F	6.325140196428573	80.82711901785714
LK-1236120	Meegahawatta	LK-1	LK-12	LK-1236	EC-02M	174C	6.968275585858594	79.88918865656565
LK-6157075	Yaggapitiya	LK-6	LK-61	LK-6157	EC-15L	727	7.4993733095238095	80.38666671428572
LK-2109060	Konakalagala	LK-2	LK-21	LK-2109	EC-04B	581	7.391153942028988	80.62053271014491
LK-1236180	Mewella	LK-1	LK-12	LK-1236	EC-02M	262A	6.950330710526314	79.90211269736842
LK-6163085	Kotuhena	LK-6	LK-61	LK-6163	EC-15N	539	7.586083374999999	80.54908376785718
LK-2109170	Kurudugahaela	LK-2	LK-21	LK-2109	EC-04B	592	7.361887796610168	80.62077020338988
LK-1236015	Nahena	LK-1	LK-12	LK-1236	EC-02M	256C	6.987371771739138	79.91269227173913
LK-1212655	Imbulgasovita	LK-1	LK-12	LK-1212	EC-02E	360D	7.178532586206896	80.14728172413791
LK-2112025	Doragamuwa	LK-2	LK-21	LK-2112	EC-04C	600	7.358404437500003	80.65584343750001
LK-1309060	Halapitiya	LK-1	LK-13	LK-1309	EC-03C	606C	6.753979647058822	79.98713178074865
LK-2109130	Kurugoda	LK-2	LK-21	LK-2109	EC-04B	570	7.380371327272724	80.62361598181818
LK-5225030	Sainthamaruthu 06	LK-5	LK-52	LK-5225	EC-13C	KP/52C	7.396540952380955	81.84110714285715
LK-5127090	Araipattai South	LK-5	LK-51	LK-5127	EC-12C	156B	7.661462942857143	81.73331105714283
LK-2115025	Thawalanthenna	LK-2	LK-21	LK-2115	EC-04C	737	7.406044057507984	80.77235347923327
LK-1309290	Halthotiyawatta	LK-1	LK-13	LK-1309	EC-03C	615D	6.716755890625001	80.05519657812496
LK-2115060	Udugoda	LK-2	LK-21	LK-2115	EC-04C	726	7.371226575999998	80.69448018399999
LK-6163215	Nahalla	LK-6	LK-61	LK-6163	EC-15N	604	7.522229661016949	80.50824045762714
LK-6166005	Lokahettiya	LK-6	LK-61	LK-6166	EC-15K	878	7.514152611111113	80.22330018518517
LK-2109065	Malgamandeniya	LK-2	LK-21	LK-2109	EC-04B	574	7.395993818181819	80.63340657954548
LK-2157095	Aluthgama	LK-2	LK-21	LK-2157	EC-04M	1093	7.029368035087719	80.51237652631576
LK-2157040	Balanthota North	LK-2	LK-21	LK-2157	EC-04M	1091	7.041372628787879	80.48344639772725
LK-2157085	Bawwagama	LK-2	LK-21	LK-2157	EC-04M	1083	7.036526851528386	80.53864911353706
LK-1309125	Handupelpola	LK-1	LK-13	LK-1309	EC-03C	631	6.758341234234234	80.08913634234231
LK-1309260	Horana North	LK-1	LK-13	LK-1309	EC-03C	615	6.720050467532469	80.06065602597401
LK-2157080	Greenwood	LK-2	LK-21	LK-2157	EC-04M	1082	7.033731544554463	80.56176400495048
LK-1309280	Horana South	LK-1	LK-13	LK-1309	EC-03C	615A	6.71344834883721	80.06879690697674
LK-6169075	Ambahenwewa	LK-6	LK-61	LK-6169	EC-15I	1132	7.4886923333333355	80.19550419999997
LK-2157145	Hydree	LK-2	LK-21	LK-2157	EC-04M	1080	6.959405716981142	80.56395743396229
LK-1309020	Ihala Millewa North	LK-1	LK-13	LK-1309	EC-03C	628A	6.788089640624999	80.07483421874991
LK-2157075	Imbulpitiya	LK-2	LK-21	LK-2157	EC-04M	1084	7.049611469483564	80.54728479342725
LK-2157055	Nawalapitiya South	LK-2	LK-21	LK-2157	EC-04M	1086	7.061491234693878	80.53279025510201
LK-8121015	Medapathana	LK-8	LK-81	LK-8121	EC-19D	78M	7.008691397058821	81.0601544264706
LK-2157090	Kendopitiya	LK-2	LK-21	LK-2157	EC-04M	1097	7.033397730994153	80.52592988888885
LK-8133065	Bandarawela West	LK-8	LK-81	LK-8133	EC-19H	65B	6.83295138333333	80.9878058833333
LK-6169115	Thalliyadda	LK-6	LK-61	LK-6169	EC-15I	1127	7.4826355625000005	80.14833664583334
LK-2157005	Pallegama	LK-2	LK-21	LK-2157	EC-04M	1104	7.084463575342466	80.55034906849313
LK-2157015	Weligodawatta	LK-2	LK-21	LK-2157	EC-04M	1102	7.074045494252875	80.5337534425286
LK-1309025	Ihala Millewa South	LK-1	LK-13	LK-1309	EC-03C	628D	6.785964156626503	80.06204514457833
LK-1309100	Kahatapitiya	LK-1	LK-13	LK-1309	EC-03C	612	6.769884974683546	80.05291355696204
LK-2109055	Malwanahinna	LK-2	LK-21	LK-2109	EC-04B	569	7.383337457142859	80.61515434285715
LK-2157125	Westhole	LK-2	LK-21	LK-2157	EC-04M	1079	6.9834979781659445	80.56925641921396
LK-2112030	Bogahakumbura	LK-2	LK-21	LK-2112	EC-04C	626	7.358626914285716	80.64678662142853
LK-2157140	Wewegama	LK-2	LK-21	LK-2157	EC-04M	1095	6.985757079646018	80.52959252654861
LK-2112055	Aluthgama	LK-2	LK-21	LK-2112	EC-04C	625	7.359938391891894	80.64685186486491
LK-1309140	Kananvila North	LK-1	LK-13	LK-1309	EC-03C	612A	6.75799621153846	80.05762513461539
LK-2112160	Millanga	LK-2	LK-21	LK-2112	EC-04C	617	7.3447249178082155	80.63289947945202
LK-2112250	Galewatta	LK-2	LK-21	LK-2112	EC-04C	607	7.330097822222222	80.62658735555557
LK-2112135	Girakaduwa	LK-2	LK-21	LK-2112	EC-04C	631	7.358089530864197	80.62312262962963
LK-2112125	Moonamale	LK-2	LK-21	LK-2112	EC-04C	628	7.34975308108108	80.63640737837841
LK-2112130	Kendaliyadda	LK-2	LK-21	LK-2112	EC-04C	630	7.351889895238099	80.6259273904762
LK-2145230	Damunugolla	LK-2	LK-21	LK-2145	EC-04G	1008	7.2229225800000005	80.74045598
LK-2112150	Megodagama	LK-2	LK-21	LK-2112	EC-04C	618	7.339725278688526	80.62841142622953
LK-2112050	Paranagama	LK-2	LK-21	LK-2112	EC-04C	627	7.355457888888891	80.63537295238093
LK-2109075	Marahela	LK-2	LK-21	LK-2109	EC-04B	582	7.389280260869562	80.62567389855074
LK-2112165	Pallethalavinna	LK-2	LK-21	LK-2112	EC-04C	613	7.33929679069768	80.63938356976747
LK-2112120	Pallethalavinna Ihala	LK-2	LK-21	LK-2112	EC-04C	614	7.345677687500002	80.643064475
LK-2145195	Godamunna West	LK-2	LK-21	LK-2145	EC-04G	990	7.2276442727272725	80.70043761616164
LK-2145070	Kapuliyadda East	LK-2	LK-21	LK-2145	EC-04G	992	7.240893256410255	80.71613375641024
LK-5136130	Kurumanvely 12	LK-5	LK-51	LK-5136	EC-12C	114A	7.483954038461537	81.78186569230772
LK-2145075	Kapuliyadda West	LK-2	LK-21	LK-2145	EC-04G	991	7.238519857142855	80.70943466666662
LK-2145325	Kiriwanagoda	LK-2	LK-21	LK-2145	EC-04G	1012	7.202133336538462	80.74044446153843
LK-2145265	Medagama Udagama	LK-2	LK-21	LK-2145	EC-04G	996	7.215239178861788	80.70859201626016
LK-2109090	Melchena	LK-2	LK-21	LK-2109	EC-04B	568	7.377589866666668	80.60993833333333
LK-2145020	Monarangala	LK-2	LK-21	LK-2145	EC-04G	952	7.256587231999999	80.65803928800003
LK-2145320	Oluwawatta	LK-2	LK-21	LK-2145	EC-04G	1015	7.202855021505373	80.72825767741938
LK-2145220	Pathamailapitiya North	LK-2	LK-21	LK-2145	EC-04G	1005	7.231804546874996	80.7594278203125
LK-4136095	Sirambiady	LK-4	LK-41	LK-4136	EC-10J	J/79	9.6699321	80.01743286666668
LK-2106250	Ambaruppa	LK-2	LK-21	LK-2106	EC-04B	496	7.381329258064517	80.53938258064518
LK-2148050	Wanahapuwa	LK-2	LK-21	LK-2148	EC-04L	1036	7.180804703125001	80.71834240625
LK-2145215	Pathamailapitiya South	LK-2	LK-21	LK-2145	EC-04G	1006	7.230621269938653	80.7435718895706
LK-2145260	Sriyagama	LK-2	LK-21	LK-2145	EC-04G	974	7.219474308035713	80.68133213392858
LK-2106175	Bokkawala	LK-2	LK-21	LK-2106	EC-04B	502	7.392256494382026	80.5552887303371
LK-2109085	Neerella	LK-2	LK-21	LK-2109	EC-04B	567	7.375739050000002	80.617015525
LK-2106155	Dolapihilla North	LK-2	LK-21	LK-2106	EC-04B	518	7.3929912978723396	80.58663759574466
LK-6172215	Dandagamuwa West	LK-6	LK-61	LK-6172	EC-15I	1193	7.453435064516128	80.02560967741934
LK-1106025	Veheragoda	LK-1	LK-11	LK-1106	EC-01H	509B	6.948724259259258	79.88594833333333
LK-2106160	Dolapihilla South	LK-2	LK-21	LK-2106	EC-04B	519	7.394012276595745	80.57877389361707
LK-2106005	Egodamulla North	LK-2	LK-21	LK-2106	EC-04B	531	7.446345915966386	80.55337631092438
LK-2106075	Galhinna	LK-2	LK-21	LK-2106	EC-04B	524	7.418402330097084	80.56333195145628
LK-2106080	Galkanda	LK-2	LK-21	LK-2106	EC-04B	523	7.414046351351351	80.5554503153153
LK-2106010	Ihalamulla	LK-2	LK-21	LK-2106	EC-04B	528	7.447708865546219	80.5642427815126
LK-2106145	Kahatagasthenna	LK-2	LK-21	LK-2106	EC-04B	520	7.407369627118638	80.58195788983052
LK-5218125	Sammanthurai 12	LK-5	LK-52	LK-5218	EC-13B	92D	7.366069807692306	81.79397753846153
LK-2109155	Palle Deegala	LK-2	LK-21	LK-2109	EC-04B	577	7.376950199999998	80.63472402666666
LK-2109140	Pangollamada	LK-2	LK-21	LK-2109	EC-04B	573	7.389637205882353	80.64262447058823
LK-2106135	Rambukewela	LK-2	LK-21	LK-2106	EC-04B	517	7.402254389312975	80.56626298473287
LK-2106035	Uda Kithulgolla	LK-2	LK-21	LK-2106	EC-04B	539	7.43028333766234	80.56918463636364
LK-2109110	Palleweliketiya	LK-2	LK-21	LK-2109	EC-04B	562	7.3662785	80.61232489999998
LK-2106060	Welgala	LK-2	LK-21	LK-2106	EC-04B	537	7.419605037037035	80.57839806481482
LK-2106165	Weligalla	LK-2	LK-21	LK-2106	EC-04B	516	7.38848614634146	80.568210097561
LK-2106105	Wewala North	LK-2	LK-21	LK-2106	EC-04B	506	7.407108737226279	80.54771230656934
LK-2103290	Adungama Palkumbura	LK-2	LK-21	LK-2103	EC-04A	360	7.343907642857144	80.54938542857143
LK-2103095	Damunugasthenna	LK-2	LK-21	LK-2103	EC-04A	306	7.382688442622948	80.52410377049186
LK-2103015	Galabawa	LK-2	LK-21	LK-2103	EC-04A	378	7.39671351388889	80.48047556944444
LK-2103320	Hiyadala Walpola	LK-2	LK-21	LK-2103	EC-04A	294	7.347456241935485	80.5068279032258
LK-2103230	Kuragama North	LK-2	LK-21	LK-2103	EC-04A	366	7.360308849315067	80.52169901369861
LK-2103285	Marawanagoda	LK-2	LK-21	LK-2103	EC-04A	402	7.345844650793651	80.55634638095239
LK-2103315	Pallekotuwa	LK-2	LK-21	LK-2103	EC-04A	392	7.334634827586205	80.52708034482758
LK-2103090	Palukopi watta	LK-2	LK-21	LK-2103	EC-04A	308	7.366657578313255	80.53468730120483
LK-2103210	Paranagama	LK-2	LK-21	LK-2103	EC-04A	367	7.358122106382977	80.51027988297867
LK-2103220	Pavulpawa	LK-2	LK-21	LK-2103	EC-04A	297	7.363672606741575	80.51718043820222
LK-2109005	Rambuke Ela	LK-2	LK-21	LK-2109	EC-04B	590	7.420878873873872	80.58928654054054
LK-2103125	Pethigewela	LK-2	LK-21	LK-2103	EC-04A	310	7.380048222222221	80.51113438888889
LK-2103305	Poholiyadda	LK-2	LK-21	LK-2103	EC-04A	288	7.347386666666667	80.5236033902439
LK-2103155	Pubbiliya	LK-2	LK-21	LK-2103	EC-04A	321	7.385744000000001	80.48415370212767
LK-2118270	Madugalla Udagammedda	LK-2	LK-21	LK-2118	EC-04D	858	7.271176986486486	80.89196204054059
LK-2103030	Rokhill	LK-2	LK-21	LK-2103	EC-04A	302	7.385535574468085	80.51588940425535
LK-2118160	Halyala	LK-2	LK-21	LK-2118	EC-04D	845	7.312774033898305	80.8740071355932
LK-2118105	Andideniya	LK-2	LK-21	LK-2118	EC-04D	884	7.352726807017542	80.88650085964915
LK-2118295	Bambarabedda East	LK-2	LK-21	LK-2118	EC-04D	836	7.248547917647056	80.85512855294121
LK-2118300	Bambarabedda West	LK-2	LK-21	LK-2118	EC-04D	837	7.2447046976744165	80.85226025581395
LK-2118290	Devinnegama	LK-2	LK-21	LK-2118	EC-04D	838	7.261308410714285	80.84903378571427
LK-1309005	Kotigamgoda	LK-1	LK-13	LK-1309	EC-03C	628B	6.8118815223880596	80.08372655223882
LK-1309050	Koralaima	LK-1	LK-13	LK-1309	EC-03C	604A	6.771106161290325	80.00753790322585
LK-2118255	Dewahandiya East	LK-2	LK-21	LK-2118	EC-04D	863	7.240142594262294	80.91260683196712
LK-2118190	Godakumbura	LK-2	LK-21	LK-2118	EC-04D	854	7.301719885245903	80.89867090163933
LK-1112280	Suwapubudugama	LK-1	LK-11	LK-1112	EC-01L	484E	6.808204987654318	80.03867411111113
LK-2136080	Pelawa Ihala Meda	LK-2	LK-21	LK-2136	EC-04J	139	7.304433382352943	80.57214699999997
LK-2118150	Hunnasgiriya	LK-2	LK-21	LK-2118	EC-04D	843	7.298555228260866	80.85492195652174
LK-1230395	Yakambe	LK-1	LK-12	LK-1230	EC-02K	393A	6.982953112903224	80.10968232258067
LK-1209115	Akaragama North	LK-1	LK-12	LK-1209	EC-02D	58C	7.267669904109589	79.95459239726031
LK-9227155	Kalukohuthenna	LK-9	LK-92	LK-9227	EC-22G	134D	6.994907977695163	80.42034410780668
LK-1330035	Yattovita	LK-1	LK-13	LK-1330	EC-03E	805E	6.5217494848484865	80.10419363636363
LK-1318020	Welikala	LK-1	LK-13	LK-1318	EC-03B	654	6.709621783132531	80.04056421686748
LK-2109070	Rathukoho	LK-2	LK-21	LK-2109	EC-04B	575	7.388615852459016	80.63205524590161
LK-9112205	Rathnapura Town North	LK-9	LK-91	LK-9112	EC-21B	152E	6.683164062499998	80.40414020312498
LK-1318040	Langana	LK-1	LK-13	LK-1318	EC-03B	646	6.691887192307695	80.02077873076927
LK-2151030	Bowala	LK-2	LK-21	LK-2151	EC-04M	1131	7.184534724137933	80.55586010344824
LK-2151060	Bothalapitiya	LK-2	LK-21	LK-2151	EC-04M	1109	7.169951149253735	80.57680832835823
LK-2118025	Karambaketiya	LK-2	LK-21	LK-2118	EC-04D	896	7.384346577060926	80.84127534767025
LK-2118200	Karandagolla	LK-2	LK-21	LK-2118	EC-04D	853	7.298034518518521	80.8785207777778
LK-2118090	Kobonilla	LK-2	LK-21	LK-2118	EC-04D	891	7.357000509803916	80.84901024313729
LK-2118240	Minuwangamuwa	LK-2	LK-21	LK-2118	EC-04D	856	7.28214532903226	80.88349400000006
LK-2151190	Delpitiya	LK-2	LK-21	LK-2151	EC-04M	1166	7.1392109017857175	80.58842424999999
LK-2118010	Kumbukgolla	LK-2	LK-21	LK-2118	EC-04D	895	7.406255604395609	80.86521721428575
LK-2118275	Madugalla North	LK-2	LK-21	LK-2118	EC-04D	859	7.267214491803279	80.8855754590164
LK-1224095	Aluthgama Bogamuwa North	LK-1	LK-12	LK-1224	EC-02H	229	7.110898109589039	80.05160504109591
LK-2118280	Madugalla South	LK-2	LK-21	LK-2118	EC-04D	860	7.261817051470592	80.87754980147056
LK-2118180	Mahawala	LK-2	LK-21	LK-2118	EC-04D	870	7.294831556650243	80.93185858128076
LK-2118195	Mediwaka	LK-2	LK-21	LK-2118	EC-04D	852	7.3007294204545445	80.88702565909097
LK-2118035	Moonamalpelessa	LK-2	LK-21	LK-2118	EC-04D	880	7.377036617187503	80.8831334375
LK-2118005	Meemure	LK-2	LK-21	LK-2118	EC-04D	893	7.444990684615387	80.85357685769232
LK-2118165	Mendiriya	LK-2	LK-21	LK-2118	EC-04D	846	7.310932153846155	80.88205888461538
LK-2139370	Meddegoda	LK-2	LK-21	LK-2139	EC-04K	71	7.221218368421052	80.56607507017544
LK-2118145	Nawanagala	LK-2	LK-21	LK-2118	EC-04D	848	7.320748309734509	80.86315001769916
LK-2118225	Nugethenna West	LK-2	LK-21	LK-2118	EC-04D	841	7.279924045454543	80.85137449999998
LK-1224045	Akaravita	LK-1	LK-12	LK-1224	EC-02H	222B	7.093170415384616	79.97807275384615
LK-2118120	Oyathenna	LK-2	LK-21	LK-2118	EC-04D	872	7.34416836923077	80.90710042307691
LK-2118050	Padupola	LK-2	LK-21	LK-2118	EC-04D	874	7.392180654320987	80.90954581481483
LK-2139555	Nawa Elpitiya South	LK-2	LK-21	LK-2139	EC-04K	40	7.203283851851853	80.6015305185185
LK-1224100	Aluthgama Bogamuwa South	LK-1	LK-12	LK-1224	EC-02H	229A	7.105363057142857	80.04459677142856
LK-1224035	Ambanvita	LK-1	LK-12	LK-1224	EC-02H	220A	7.0905174096385535	79.96184255421687
LK-2118095	Pallekanda	LK-2	LK-21	LK-2118	EC-04D	892	7.3461302499999945	80.86215690853662
LK-2109160	Thelambugahawatta	LK-2	LK-21	LK-2109	EC-04B	565	7.372010530612244	80.62705522448981
LK-2118070	Pallewela	LK-2	LK-21	LK-2118	EC-04D	878	7.361599471910115	80.8832917865169
LK-2127335	Karattamada	LK-2	LK-21	LK-2127	EC-04F	654	7.2924598484848495	80.66390957575757
LK-2118285	Pamunethenna	LK-2	LK-21	LK-2118	EC-04D	835	7.255642252336449	80.86141257943926
LK-2139415	Nawa Peradeniya	LK-2	LK-21	LK-2139	EC-04K	26	7.219485811594201	80.60170314492753
LK-2118250	Pitawala	LK-2	LK-21	LK-2118	EC-04D	867	7.280911107692309	80.91578173846156
LK-2118185	Pitawala Udagammaedda	LK-2	LK-21	LK-2118	EC-04D	868	7.293570102040815	80.91173578571426
LK-2118305	Pitigoda	LK-2	LK-21	LK-2118	EC-04D	834	7.224885492063489	80.86493383597885
LK-2118115	Poppitiya	LK-2	LK-21	LK-2118	EC-04D	871	7.36704925925926	80.9062918962964
LK-2118210	Rambukwella West	LK-2	LK-21	LK-2118	EC-04D	849	7.28817260550459	80.8704120458716
LK-2118020	Pusseela	LK-2	LK-21	LK-2118	EC-04D	897	7.416137332031257	80.82272062499995
LK-2118205	Rambukwella East	LK-2	LK-21	LK-2118	EC-04D	850	7.292900946236559	80.87540935483872
LK-2151105	Angammana East	LK-2	LK-21	LK-2151	EC-04M	1163	7.158235707692308	80.58633281538462
LK-2118125	Thalagune	LK-2	LK-21	LK-2118	EC-04D	875	7.336365733333333	80.8894656888889
LK-2151090	Gampola West	LK-2	LK-21	LK-2151	EC-04M	1111	7.163911333333338	80.56626990123452
LK-2109105	Udaweliketiya	LK-2	LK-21	LK-2109	EC-04B	561	7.36703801818182	80.60831619999998
LK-2118140	Udadumbara	LK-2	LK-21	LK-2118	EC-04D	847	7.3177667407407405	80.88025807407409
LK-2118045	Udailuka	LK-2	LK-21	LK-2118	EC-04D	887	7.399631723214286	80.8950836696429
LK-2109175	Uggala	LK-2	LK-21	LK-2109	EC-04B	593	7.365539062500001	80.62643511250003
LK-5236080	Akkaraipattu 10	LK-5	LK-52	LK-5236	EC-13B	AP/15/1	7.223430653846153	81.85314080769231
LK-1230285	Pepiliyawala	LK-1	LK-12	LK-1230	EC-02K	380B	7.001510964705885	80.12841647058825
LK-2151085	Sinhapitiya South	LK-2	LK-21	LK-2151	EC-04M	1118	7.164524831683169	80.55837535643565
LK-2118055	Udakumbura	LK-2	LK-21	LK-2118	EC-04D	873	7.380671554621848	80.91776300840336
LK-2118175	Udapitawala	LK-2	LK-21	LK-2118	EC-04D	866	7.313415191011233	80.91048320224719
LK-2118075	Udawela	LK-2	LK-21	LK-2118	EC-04D	888	7.3578794623655925	80.87079916129032
LK-2118085	Wadawalakanda	LK-2	LK-21	LK-2118	EC-04D	890	7.358957877358492	80.85277396226414
LK-2151185	Amuhena	LK-2	LK-21	LK-2151	EC-04M	1169	7.135154659090912	80.60821404545452
LK-2139275	Handessa	LK-2	LK-21	LK-2139	EC-04K	14	7.230656767441858	80.58290890697677
LK-2151140	Amumupuraya	LK-2	LK-21	LK-2151	EC-04M	1165	7.148243236024847	80.58826275776396
LK-2151110	Angammana West	LK-2	LK-21	LK-2151	EC-04M	1164	7.158201778846154	80.57938613461543
LK-2139485	Rangoda	LK-2	LK-21	LK-2139	EC-04K	66	7.207839507936507	80.55882312698415
LK-2151035	Rathmalkaduwa	LK-2	LK-21	LK-2151	EC-04M	1126	7.173693516129036	80.55263937096774
LK-2151115	Aregoda	LK-2	LK-21	LK-2151	EC-04M	1113	7.155886260416666	80.56809774999998
LK-2109015	Vilana Pallegama	LK-2	LK-21	LK-2109	EC-04B	591	7.406181194915248	80.59681165254244
LK-2109010	Vilana Udagama	LK-2	LK-21	LK-2109	EC-04B	589	7.416863585365849	80.59333054878049
LK-2151010	Udovita	LK-2	LK-21	LK-2151	EC-04M	1125	7.1861328860759475	80.59637239240509
LK-2124385	Udathenna	LK-2	LK-21	LK-2124	EC-04E	811	7.283667655737707	80.81184831147543
LK-2139560	Polgahaanga	LK-2	LK-21	LK-2139	EC-04K	44	7.201285809523808	80.59694463492062
LK-2151225	Doragala	LK-2	LK-21	LK-2151	EC-04M	1180	7.0997279366515835	80.61725678280541
LK-2109020	Walahena	LK-2	LK-21	LK-2109	EC-04B	587	7.404327092592591	80.60292287037038
LK-2151120	Kurukude	LK-2	LK-21	LK-2151	EC-04M	1114	7.150015902439024	80.56787082926827
LK-9227150	Kithulgala North	LK-9	LK-92	LK-9227	EC-22G	134	7.006206537499997	80.40454166250001
LK-2151165	Dunukeulla	LK-2	LK-21	LK-2151	EC-04M	1183	7.131932241071427	80.64161386160717
LK-2151160	Hunukotugama	LK-2	LK-21	LK-2151	EC-04M	1175	7.142546037383181	80.63034358878504
LK-2136070	Pelawa Ihalagama	LK-2	LK-21	LK-2136	EC-04J	138	7.3121430000000025	80.56677188333337
LK-5221010	Periyaneelavanai  01A	LK-5	LK-52	LK-5221	EC-13C	KP/71/2	7.447029035714286	81.81535017857144
LK-2151040	Hapugaspitiya	LK-2	LK-21	LK-2151	EC-04M	1128	7.173326425925931	80.55806581481481
LK-1318025	Thibbotugoda	LK-1	LK-13	LK-1318	EC-03B	654A	6.699421375	80.04986366249997
LK-2151200	Galatha	LK-2	LK-21	LK-2151	EC-04M	1185	7.115098262672804	80.5912845023042
LK-2151020	Galgediyawa	LK-2	LK-21	LK-2151	EC-04M	1124	7.18459504901961	80.57496856862741
LK-2151065	Gampola East	LK-2	LK-21	LK-2151	EC-04M	1108	7.1721404065934085	80.57559373626377
LK-2151130	Godagama	LK-2	LK-21	LK-2151	EC-04M	1117	7.159474387559822	80.54885919138752
LK-2109165	Waragashinna	LK-2	LK-21	LK-2109	EC-04B	566	7.367099490566037	80.62104824528302
LK-1224360	Amunugoda North	LK-1	LK-12	LK-1224	EC-02H	238	7.049729267605631	79.98699099999996
LK-2151175	Ihalagama	LK-2	LK-21	LK-2151	EC-04M	1174	7.134958208333335	80.63140174999998
LK-1224420	Amunugoda South	LK-1	LK-12	LK-1224	EC-02H	238A	7.044258355932204	79.98145542372878
LK-2151050	Ilangawatta	LK-2	LK-21	LK-2151	EC-04M	1120	7.175914052083336	80.57585411458338
LK-2124330	Wellethota	LK-2	LK-21	LK-2124	EC-04E	767	7.299647849315068	80.77220108219176
LK-2148040	Bawlanawatta Janapadaya	LK-2	LK-21	LK-2148	EC-04L	998	7.195167520661156	80.71192638842975
LK-2151100	Illawathura	LK-2	LK-21	LK-2151	EC-04M	1110	7.165154523076922	80.57508033846155
LK-2151070	Mount Temple	LK-2	LK-21	LK-2151	EC-04M	1122	7.171271359999999	80.56475735
LK-2151135	Jayamalapura	LK-2	LK-21	LK-2151	EC-04M	1116	7.144999031249999	80.56783256249996
LK-2151055	Kahatapitiya	LK-2	LK-21	LK-2151	EC-04M	1119	7.17912147916666	80.57890112499997
LK-2151240	Kalugalhinna	LK-2	LK-21	LK-2151	EC-04M	1189	7.085909115384617	80.5625622820513
LK-2139380	Ambarapola	LK-2	LK-21	LK-2139	EC-04K	59	7.219185339999999	80.57322404
LK-2148055	Bopitiya Nagaraya	LK-2	LK-21	LK-2148	EC-04L	1038	7.182125410958902	80.7115556986301
LK-2148025	Galaha	LK-2	LK-21	LK-2148	EC-04L	978	7.196125431818182	80.6709835909091
LK-1224080	Baduwathugoda	LK-1	LK-12	LK-1224	EC-02H	226	7.108527333333336	80.0278487017544
LK-2151245	Mawathura	LK-2	LK-21	LK-2151	EC-04M	1187	7.089516081447961	80.57945773303163
LK-2151230	Kekulanda	LK-2	LK-21	LK-2151	EC-04M	1186	7.095632237499995	80.5881606458333
LK-2151125	Kudamake	LK-2	LK-21	LK-2151	EC-04M	1115	7.154955750000007	80.56334427083338
LK-2139150	Angunawala East	LK-2	LK-21	LK-2139	EC-04K	18	7.235544473684209	80.59766031578947
LK-2151150	Millagaspitiya	LK-2	LK-21	LK-2151	EC-04M	1172	7.140644970000003	80.61701664000003
LK-2139475	Bambaradeniya	LK-2	LK-21	LK-2139	EC-04K	63	7.2113317884615356	80.56620678846153
LK-2151195	Nawadevita	LK-2	LK-21	LK-2151	EC-04M	1167	7.13303715503876	80.585653372093
LK-1224135	Bendiyamulla North	LK-1	LK-12	LK-1224	EC-02H	234	7.086686018181816	79.99949305454543
LK-2148070	Karagaskada North	LK-2	LK-21	LK-2148	EC-04L	1041	7.171042340206183	80.6974741649485
LK-1224395	Belummahara	LK-1	LK-12	LK-1224	EC-02H	239	7.055633568965516	80.00624960344824
LK-2124145	Udabage	LK-2	LK-21	LK-2124	EC-04E	779	7.337610042857146	80.76931567142856
LK-6236145	Erunvila	LK-6	LK-62	LK-6236	EC-16C	534D	7.50071725925926	79.85932159259261
LK-9227050	Welihelathenna	LK-9	LK-92	LK-9227	EC-22G	135A	7.036471653061224	80.33979865306124
LK-2151205	Pallegama	LK-2	LK-21	LK-2151	EC-04M	1168	7.124500612021861	80.60009398360658
LK-2233295	Marukona	LK-2	LK-22	LK-2233	EC-05D	E360	7.412637833333335	80.64304384999998
LK-2139155	Angunawala West	LK-2	LK-21	LK-2139	EC-04K	19	7.237388660377356	80.59463541509434
LK-2139230	Kovilakanda	LK-2	LK-21	LK-2139	EC-04K	113	7.22056602941176	80.52914713235293
LK-1318055	Raddegoda	LK-1	LK-13	LK-1318	EC-03B	644C	6.684119009615383	80.00272490384617
LK-2148115	Kolambissa East	LK-2	LK-21	LK-2148	EC-04L	1029	7.1751281	80.74205409999999
LK-9227055	Malalpola	LK-9	LK-92	LK-9227	EC-22G	132A	7.053974375000005	80.35170839772725
LK-7109180	Lindawewa	LK-7	LK-71	LK-7109	EC-17A	77	8.509751585714286	80.54126914285712
LK-2151180	Paradeka	LK-2	LK-21	LK-2151	EC-04M	1178	7.1219889999999895	80.6199732644928
LK-2151095	Polkumbura	LK-2	LK-21	LK-2151	EC-04M	1112	7.164994611111116	80.5701481944445
LK-2151025	Ranawala	LK-2	LK-21	LK-2151	EC-04M	1130	7.182676422818792	80.56229043624155
LK-2148075	Gonangoda	LK-2	LK-21	LK-2148	EC-04L	1040	7.162411463855423	80.70710815662652
LK-2151235	Weliganga	LK-2	LK-21	LK-2151	EC-04M	1188	7.0970997346938764	80.57048469387757
LK-2151210	Pussellawa	LK-2	LK-21	LK-2151	EC-04M	1176	7.111972976470578	80.64121804705881
LK-2139170	Alapalawala East	LK-2	LK-21	LK-2139	EC-04K	16	7.240391095999995	80.580539584
LK-2151080	Sinhapitiya North	LK-2	LK-21	LK-2151	EC-04M	1127	7.167349327683613	80.54507119209039
LK-2139620	Appallagoda West	LK-2	LK-21	LK-2139	EC-04K	96	7.192779194444445	80.5528061388889
LK-2148035	Greatweliya	LK-2	LK-21	LK-2148	EC-04L	1043	7.185808338461537	80.70054546923082
LK-2151220	Pussellawagama	LK-2	LK-21	LK-2151	EC-04M	1179	7.104795217021269	80.62748874042548
LK-2139175	Alapalawala West	LK-2	LK-21	LK-2139	EC-04K	17	7.241377324675323	80.57452022077918
LK-2139615	Appallagoda East	LK-2	LK-21	LK-2139	EC-04K	95	7.193699555555556	80.55764092063491
LK-1236095	Nungamugoda	LK-1	LK-12	LK-1236	EC-02M	258B	6.966315637168143	79.9157419380531
LK-2148080	Kandegama	LK-2	LK-21	LK-2148	EC-04L	1046	7.169691347107444	80.71624514049593
LK-1212030	Loluwagoda South	LK-1	LK-12	LK-1212	EC-02E	1B	7.294501551724138	80.12866055172411
LK-7106120	Thimbiriwewa	LK-7	LK-71	LK-7106	EC-17A	17	8.61021675257732	80.66213459793812
LK-7106010	Kanugahawewa	LK-7	LK-71	LK-7106	EC-17A	28	8.812708076642329	80.66947484306573
LK-2148095	Kiriwanaketiya	LK-2	LK-21	LK-2148	EC-04L	1027	7.17785690740741	80.73315292592595
LK-6187390	Galbadagama	LK-6	LK-61	LK-6187	EC-15K	936	7.323882117647057	80.2889615882353
LK-2151155	Udagama	LK-2	LK-21	LK-2151	EC-04M	1171	7.139543878378378	80.62205768243247
LK-2151045	Unambuwa	LK-2	LK-21	LK-2151	EC-04M	1121	7.177644623655911	80.56818491397846
LK-2139490	Ambagasthenna	LK-2	LK-21	LK-2139	EC-04K	68	7.208092066666665	80.55391517777778
LK-2139295	Godapola East	LK-2	LK-21	LK-2139	EC-04K	27	7.228460416666666	80.59897911111109
LK-7109020	Puhudivula	LK-7	LK-71	LK-7109	EC-17A	44	8.674074593984962	80.55672287218046
LK-2151215	Wahugapitiya	LK-2	LK-21	LK-2151	EC-04M	1177	7.114980199999995	80.62543819999998
LK-1224255	Bendiyamulla West	LK-1	LK-12	LK-1224	EC-02H	234B	7.082552471428573	79.99825610000002
LK-2151170	Wanahapuwa	LK-2	LK-21	LK-2151	EC-04M	1184	7.134097043859649	80.64862757017546
LK-2151145	Wattehena	LK-2	LK-21	LK-2151	EC-04M	1170	7.141255485029944	80.60031497005993
LK-2139430	Gelioya	LK-2	LK-21	LK-2139	EC-04K	38	7.210788474576271	80.59816998305082
LK-2136150	Doluwa West	LK-2	LK-21	LK-2136	EC-04J	214	7.289093253731345	80.51739525373135
LK-2139050	Alanduwaka	LK-2	LK-21	LK-2139	EC-04K	122	7.252047305084748	80.5406646101695
LK-2139470	Batupitiya	LK-2	LK-21	LK-2139	EC-04K	57	7.209486370370372	80.56970948148147
LK-2139025	Boyagama	LK-2	LK-21	LK-2139	EC-04K	6	7.254742346666667	80.57002308000001
LK-5324090	Periya Kinniya	LK-5	LK-53	LK-5324	EC-14A	226B	8.504017444444447	81.17933895555555
LK-2139530	Daskara	LK-2	LK-21	LK-2139	EC-04K	61	7.20459684375	80.5718175208333
LK-2139315	Davulagala	LK-2	LK-21	LK-2139	EC-04K	55	7.224710964285713	80.5760824880953
LK-2148100	Kolambissa West	LK-2	LK-21	LK-2148	EC-04L	1030	7.17922796296296	80.73832114814816
LK-2139440	Dehipagoda East	LK-2	LK-21	LK-2139	EC-04K	37	7.207636819999999	80.58824829999998
LK-2139435	Dehipagoda West	LK-2	LK-21	LK-2139	EC-04K	36	7.208480239130434	80.59300399999998
LK-7109135	Puleliya	LK-7	LK-71	LK-7109	EC-17A	62	8.530783950819675	80.42229804918034
LK-2139605	Deldeniya	LK-2	LK-21	LK-2139	EC-04K	98	7.188855931818179	80.56914320454541
LK-2139565	Delgahapitiya	LK-2	LK-21	LK-2139	EC-04K	45	7.196324176470587	80.59612013235294
LK-2139410	Karamada North	LK-2	LK-21	LK-2139	EC-04K	24	7.223531133333336	80.59735533333333
LK-2139100	Deliwala	LK-2	LK-21	LK-2139	EC-04K	85	7.243536764705882	80.56068272549015
LK-2139610	Dihitideniya	LK-2	LK-21	LK-2139	EC-04K	94	7.193915574468089	80.56409461702125
LK-2139465	Dodamdeniya	LK-2	LK-21	LK-2139	EC-04K	60	7.215602675675673	80.57053581081081
LK-2139385	Eladetta West	LK-2	LK-21	LK-2139	EC-04K	53	7.220493235955053	80.57740051685397
LK-1224195	Bollatha North	LK-1	LK-12	LK-1224	EC-02H	209	7.076050333333332	79.94147419230771
LK-2139005	Gangoda	LK-2	LK-21	LK-2139	EC-04K	1	7.258280564102565	80.56529714102564
LK-2139340	Elpitikanda	LK-2	LK-21	LK-2139	EC-04K	107	7.208411131578943	80.52378777192982
LK-2139035	Gadaladeniya North	LK-2	LK-21	LK-2139	EC-04K	81	7.253778367816093	80.55885116091955
LK-2121130	Mahagalaheenna	LK-2	LK-21	LK-2121	EC-04D	922	7.3784970461538455	80.95858864615386
LK-2139095	Gadaladeniya South	LK-2	LK-21	LK-2139	EC-04K	82	7.248250978723404	80.55896914893617
LK-2139420	Karamada South	LK-2	LK-21	LK-2139	EC-04K	25	7.218895492537311	80.59849719402987
LK-2139010	Gangoda North	LK-2	LK-21	LK-2139	EC-04K	3	7.259532133333333	80.5658107111111
LK-2139030	Gangoda South	LK-2	LK-21	LK-2139	EC-04K	2	7.254377170212769	80.56490206382978
LK-2139200	Ganguldeniya	LK-2	LK-21	LK-2139	EC-04K	88	7.239853625	80.55030352499999
LK-2139525	Ganhatha	LK-2	LK-21	LK-2139	EC-04K	93	7.200648037037041	80.56365086419756
LK-2139090	Hepana	LK-2	LK-21	LK-2139	EC-04K	87	7.244103987500002	80.55568951250001
LK-2139450	Hathnagoda	LK-2	LK-21	LK-2139	EC-04K	62	7.208235063829787	80.57761040425531
LK-2139260	Heeyawala	LK-2	LK-21	LK-2139	EC-04K	77	7.236444074074074	80.57241142592589
LK-2139130	Hendeniya East	LK-2	LK-21	LK-2139	EC-04K	10	7.2515913518518555	80.58623546296296
LK-2139125	Hendeniya West	LK-2	LK-21	LK-2139	EC-04K	9	7.251025142857145	80.58157387499999
LK-2139195	Hiddavulla East	LK-2	LK-21	LK-2139	EC-04K	91	7.233059999999998	80.5591691754386
LK-2139250	Hiddavulla West	LK-2	LK-21	LK-2139	EC-04K	92	7.233169578124999	80.55458609374998
LK-2139255	Hiyarapitiya	LK-2	LK-21	LK-2139	EC-04K	74	7.232067736111105	80.56796030555557
LK-2139590	Hondiyadeniya	LK-2	LK-21	LK-2139	EC-04K	51	7.19554153846154	80.57936119230764
LK-2139060	Ihala Koorukuttala	LK-2	LK-21	LK-2139	EC-04K	117	7.2516649682539684	80.53177265079367
LK-2139390	Ihala Pethiyagoda	LK-2	LK-21	LK-2139	EC-04K	34	7.217119086206894	80.58275689655171
LK-2148125	Kotagepitiya	LK-2	LK-21	LK-2148	EC-04L	1028	7.165507847826088	80.7349786847826
LK-2139145	Meewathura	LK-2	LK-21	LK-2139	EC-04K	20	7.24632294285714	80.59384604285712
LK-2139265	Imbuldeniya	LK-2	LK-21	LK-2139	EC-04K	76	7.231964196721309	80.57514093442622
LK-1224210	Bollatha South	LK-1	LK-12	LK-1224	EC-02H	209B	7.064934459016392	79.931832704918
LK-7109140	Viralmurippuwa	LK-7	LK-71	LK-7109	EC-17A	64	8.51851677310925	80.44787309243699
LK-2139300	Kamburadeniya	LK-2	LK-21	LK-2139	EC-04K	29	7.225196337349397	80.59086028915667
LK-2139600	Kotagaloluwa	LK-2	LK-21	LK-2139	EC-04K	97	7.194085104166668	80.5702780208333
LK-2139070	Lagamuwa	LK-2	LK-21	LK-2139	EC-04K	114	7.243929249999999	80.52706980769236
LK-2139500	Liyangaha Watta	LK-2	LK-21	LK-2139	EC-04K	101	7.202860704545452	80.54521327272728
LK-2139115	Mampitiya	LK-2	LK-21	LK-2139	EC-04K	7	7.2501889255319165	80.57259276595747
LK-2139335	Manikkawa	LK-2	LK-21	LK-2139	EC-04K	108	7.209974185567015	80.53537092783506
LK-2139075	Mathgamuwa	LK-2	LK-21	LK-2139	EC-04K	119	7.2442381384615375	80.53465419999998
LK-2148045	Maussawa	LK-2	LK-21	LK-2148	EC-04L	1035	7.1913313219178105	80.72717400684935
LK-2139545	Muruthagahamula	LK-2	LK-21	LK-2139	EC-04K	35	7.203617532467531	80.58891387012989
LK-1209560	Pinnalanda	LK-1	LK-12	LK-1209	EC-02D	97D	7.229230499999998	80.01567602941176
LK-2139505	Maveekumbura North	LK-2	LK-21	LK-2139	EC-04K	103	7.193659260869563	80.54367563043479
LK-2139510	Maveekumbura South	LK-2	LK-21	LK-2139	EC-04K	104	7.195305152380956	80.53346815238095
LK-2139305	Meewaladeniya	LK-2	LK-21	LK-2139	EC-04K	33	7.222109354838709	80.58621802150533
LK-2139270	Naranwala	LK-2	LK-21	LK-2139	EC-04K	15	7.235696253521127	80.58088519718306
LK-2139425	Nawa Elpitiya North	LK-2	LK-21	LK-2139	EC-04K	39	7.210191121951222	80.60134182926829
LK-2139240	Nikahetiya	LK-2	LK-21	LK-2139	EC-04K	109	7.222746535211266	80.5405919577465
LK-2139580	Palkumbura	LK-2	LK-21	LK-2139	EC-04K	46	7.200006487179485	80.5879918717949
LK-2139405	Palle Aludeniya	LK-2	LK-21	LK-2139	EC-04K	30	7.219614721311473	80.59332924590163
LK-2139110	Pamunuwa East	LK-2	LK-21	LK-2139	EC-04K	83	7.246109551020406	80.56699718367344
LK-2139245	Panabokka	LK-2	LK-21	LK-2139	EC-04K	124	7.226196036363637	80.54670152727272
LK-2139135	Penideniya	LK-2	LK-21	LK-2139	EC-04K	21	7.252036799999996	80.5901917
LK-2139395	Pethiyagoda West	LK-2	LK-21	LK-2139	EC-04K	32	7.211677098360654	80.58511031147543
LK-2148060	Medakekila	LK-2	LK-21	LK-2148	EC-04L	1037	7.175548369565218	80.70846634782608
LK-2148110	Murapola East	LK-2	LK-21	LK-2148	EC-04L	1031	7.181692	80.74942996923076
LK-2139480	Pilapitiya	LK-2	LK-21	LK-2139	EC-04K	64	7.205474280000002	80.56343731999998
LK-2157070	Nawalapitiya East	LK-2	LK-21	LK-2157	EC-04M	1085	7.057167359374998	80.53737556249996
LK-7112030	Ethdathkalla	LK-7	LK-71	LK-7112	EC-17D	370	8.48168276	80.23803896000003
LK-2139280	Piligalla West	LK-2	LK-21	LK-2139	EC-04K	23	7.232337785714285	80.58846177142857
LK-2139190	Rabbegamuwa South	LK-2	LK-21	LK-2139	EC-04K	80	7.236467885714283	80.56501525714282
LK-2139120	Rajagiriya	LK-2	LK-21	LK-2139	EC-04K	8	7.2460847500000005	80.57817193750002
LK-2139325	Rangama	LK-2	LK-21	LK-2139	EC-04K	73	7.2220708484848455	80.56084342424244
LK-2139225	Sadikkawatta	LK-2	LK-21	LK-2139	EC-04K	112	7.230381528301885	80.5279426792453
LK-2139140	Sangabogama	LK-2	LK-21	LK-2139	EC-04K	13	7.246799487179485	80.588967974359
LK-2306065	Delgahapitiya	LK-2	LK-23	LK-2306	EC-06C	495D	7.1812380769230755	80.77400074358974
LK-2139365	Siyambalagoda	LK-2	LK-21	LK-2139	EC-04K	72	7.214271333333332	80.56459274509801
LK-2139540	Thalawathura	LK-2	LK-21	LK-2139	EC-04K	49	7.203251866666665	80.58272156666665
LK-2139020	Thalawatta	LK-2	LK-21	LK-2139	EC-04K	4	7.25720777777778	80.57540135555553
LK-2139575	Uda Aludeniya	LK-2	LK-21	LK-2139	EC-04K	42	7.19401282142857	80.5904887857143
LK-2139215	Udagama	LK-2	LK-21	LK-2139	EC-04K	120	7.2419656304347795	80.53832441304348
LK-2139080	Urulewatta	LK-2	LK-21	LK-2139	EC-04K	121	7.243458425531913	80.54271027659576
LK-2139520	Viharagama	LK-2	LK-21	LK-2139	EC-04K	99	7.1992256056338	80.55834659154931
LK-2139210	Walagedara North	LK-2	LK-21	LK-2139	EC-04K	110	7.235828952380951	80.53753254761907
LK-7112040	Palugaswewa	LK-7	LK-71	LK-7112	EC-17D	364	8.535112714285715	80.17054105357143
LK-2148105	Murapola West	LK-2	LK-21	LK-2148	EC-04L	1032	7.184467550724637	80.74346426086959
LK-5230110	Ninthavur 22	LK-5	LK-52	LK-5230	EC-13C	37G	7.336315782608697	81.84992004347826
LK-2139235	Walagedara South	LK-2	LK-21	LK-2139	EC-04K	111	7.229241515789474	80.53704796842108
LK-2139085	Warakagoda	LK-2	LK-21	LK-2139	EC-04K	86	7.245978326923078	80.54914034615385
LK-2206010	Avudangawa	LK-2	LK-22	LK-2206	EC-05A	E453	7.995076074626865	80.74059900000002
LK-2139515	Watadeniya	LK-2	LK-21	LK-2139	EC-04K	102	7.195508339999996	80.54919576000002
LK-2139330	Wathupola	LK-2	LK-21	LK-2139	EC-04K	65	7.2197684428571405	80.55164037142855
LK-2139535	Wegiriya East	LK-2	LK-21	LK-2139	EC-04K	48	7.20212067164179	80.57665700000004
LK-2139495	Welamboda	LK-2	LK-21	LK-2139	EC-04K	100	7.201374226190475	80.55332236904758
LK-2139570	Weligalla	LK-2	LK-21	LK-2139	EC-04K	41	7.1917850909090895	80.59502861363636
LK-2139355	Werawala East	LK-2	LK-21	LK-2139	EC-04K	69	7.211687399999999	80.55396649999999
LK-2139360	Werawala West	LK-2	LK-21	LK-2139	EC-04K	67	7.215562567164177	80.55990402985074
LK-2139015	Werellamana	LK-2	LK-21	LK-2139	EC-04K	5	7.260982130434779	80.57187717391302
LK-2139160	Yalegoda East	LK-2	LK-21	LK-2139	EC-04K	11	7.242613	80.5885833508772
LK-2139165	Yalegoda West	LK-2	LK-21	LK-2139	EC-04K	12	7.241727449999999	80.58544408333337
LK-2136005	Alagalla Watta	LK-2	LK-21	LK-2136	EC-04J	190	7.293628848101265	80.48298673417723
LK-2136325	Amunupura	LK-2	LK-21	LK-2136	EC-04J	191	7.2700463902439045	80.50156145121952
LK-2136290	Arambegama East	LK-2	LK-21	LK-2136	EC-04J	164	7.271770236842101	80.55048101315793
LK-2136375	Arambegama West	LK-2	LK-21	LK-2136	EC-04J	165	7.2674790392156865	80.5473071764706
LK-2136335	Balana	LK-2	LK-21	LK-2136	EC-04J	198	7.269363195121949	80.4867260609756
LK-2136140	Bathgoda	LK-2	LK-21	LK-2136	EC-04J	212	7.2849359636363635	80.52502036363634
LK-2136415	Gannoruwa East	LK-2	LK-21	LK-2136	EC-04J	133	7.277463440000003	80.59821091999999
LK-2136390	Bulumulla	LK-2	LK-21	LK-2136	EC-04J	125	7.269343074074075	80.57079206172838
LK-2148015	Palugama	LK-2	LK-21	LK-2148	EC-04L	977	7.206606901639344	80.67976353278694
LK-2136225	Danthure	LK-2	LK-21	LK-2136	EC-04J	161	7.2833462857142885	80.53636336507935
LK-2136055	Dehianga North	LK-2	LK-21	LK-2136	EC-04J	159	7.30264306521739	80.55611532608694
LK-2136110	Dehianga South	LK-2	LK-21	LK-2136	EC-04J	160	7.295774777777776	80.55970061111111
LK-2136220	Haliyadda	LK-2	LK-21	LK-2136	EC-04J	174	7.273265916666667	80.5325054375
LK-2136050	Gurugama	LK-2	LK-21	LK-2136	EC-04J	158	7.298820180722891	80.55081219277103
LK-2136405	Dehideniya East	LK-2	LK-21	LK-2136	EC-04J	153	7.275669982142857	80.58641448214284
LK-2136265	Dehideniya West	LK-2	LK-21	LK-2136	EC-04J	154	7.277912510204081	80.58354979591836
LK-2136095	Dehigama East	LK-2	LK-21	LK-2136	EC-04J	143	7.294476306451613	80.5721273548387
LK-2136105	Dehigama North	LK-2	LK-21	LK-2136	EC-04J	144	7.294929000000001	80.56348407272729
LK-2136205	Deldeniya	LK-2	LK-21	LK-2136	EC-04J	218	7.281974527472526	80.51526220879123
LK-2136245	Diyapalagoda	LK-2	LK-21	LK-2136	EC-04J	147	7.286420705128205	80.55879096153845
LK-2136430	Edanduwawa East	LK-2	LK-21	LK-2136	EC-04J	131	7.261388999999998	80.58402622807017
LK-2136435	Edanduwawa West	LK-2	LK-21	LK-2136	EC-04J	132	7.2612739999999985	80.58109667999997
LK-2136380	Embilmeegama North	LK-2	LK-21	LK-2136	EC-04J	166	7.266958017241378	80.5582307931034
LK-2136445	Embilmeegama South	LK-2	LK-21	LK-2136	EC-04J	167	7.262378757575756	80.56271486363632
LK-2136260	Gannoruwa Central	LK-2	LK-21	LK-2136	EC-04J	136	7.286975032786885	80.58792724590161
LK-2136090	Gannoruwa West	LK-2	LK-21	LK-2136	EC-04J	135	7.2927844166666675	80.58380591666666
LK-2136285	Giragama	LK-2	LK-21	LK-2136	EC-04J	180	7.27296128169014	80.55543847887323
LK-2136175	Godigamuwa	LK-2	LK-21	LK-2136	EC-04J	187	7.282225373493975	80.4883290240964
LK-2136185	Gondeniya	LK-2	LK-21	LK-2136	EC-04J	188	7.2768271029411755	80.49387722058816
LK-2136170	Ihala Alagalla	LK-2	LK-21	LK-2136	EC-04J	189	7.2879776153846185	80.48295565384615
LK-2136120	Ihala Dodamwala	LK-2	LK-21	LK-2136	EC-04J	155	7.288362103448276	80.54428322413793
LK-2136065	Ihala Kobbekaduwa	LK-2	LK-21	LK-2136	EC-04J	142	7.315064473684214	80.55745721052632
LK-2157065	Nawalapitiya West	LK-2	LK-21	LK-2157	EC-04M	1088	7.050144562500001	80.53305547916669
LK-2145090	Thalathuoya  East	LK-2	LK-21	LK-2145	EC-04G	961	7.248900536231883	80.69313495652172
LK-2136460	Ilukwatta	LK-2	LK-21	LK-2136	EC-04J	173	7.260036416666668	80.54512581250002
LK-2136240	Imbulmalgama	LK-2	LK-21	LK-2136	EC-04J	182	7.279615378378377	80.55205487837837
LK-2136470	Kadawathgama	LK-2	LK-21	LK-2136	EC-04J	204	7.255102041095887	80.5209079041096
LK-2136475	Kadugannawa Town	LK-2	LK-21	LK-2136	EC-04J	205	7.259460833333335	80.52550742307693
LK-2136305	Kandangama North	LK-2	LK-21	LK-2136	EC-04J	208	7.26640306060606	80.52786536363637
LK-2136360	Kandangama South	LK-2	LK-21	LK-2136	EC-04J	209	7.26171111363636	80.52833325
LK-2136215	Kavudupana	LK-2	LK-21	LK-2136	EC-04J	207	7.273141825000001	80.5226753375
LK-2136410	Kendakaduwa	LK-2	LK-21	LK-2136	EC-04J	134	7.272507096774194	80.59112479032258
LK-1221200	Polpitimookalana	LK-1	LK-12	LK-1221	EC-02I	212A	7.060994253731343	79.91882070149252
LK-2136400	Kiribathkumbura East	LK-2	LK-21	LK-2136	EC-04J	129	7.271274836363635	80.58063089090908
LK-2136440	Kiribathkumbura West	LK-2	LK-21	LK-2136	EC-04J	130	7.2624562500000005	80.57453803124999
LK-2136010	Kirimetiya Watta	LK-2	LK-21	LK-2136	EC-04J	186	7.3018716440677975	80.49224805084744
LK-2136060	Kobbekaduwa	LK-2	LK-21	LK-2136	EC-04J	141	7.308856733333334	80.55824174444443
LK-2136365	Kotabogoda	LK-2	LK-21	LK-2136	EC-04J	175	7.265543411764704	80.5334512156863
LK-2136030	Kotaligoda North	LK-2	LK-21	LK-2136	EC-04J	215	7.291086529411766	80.51464062352937
LK-2136155	Kotaligoda South	LK-2	LK-21	LK-2136	EC-04J	216	7.291388025974026	80.50892840259738
LK-2136300	Kurunduwatta	LK-2	LK-21	LK-2136	EC-04J	169	7.269323227272728	80.53767586363638
LK-2136465	Madarangoda	LK-2	LK-21	LK-2136	EC-04J	176	7.260896567567567	80.53528756756761
LK-2136190	Madiligama	LK-2	LK-21	LK-2136	EC-04J	195	7.278546963636365	80.50106361818183
LK-2136315	Maligathenna	LK-2	LK-21	LK-2136	EC-04J	203	7.269230125000003	80.519006125
LK-2136160	Menikdiwela	LK-2	LK-21	LK-2136	EC-04J	217	7.287564291139242	80.50401568354431
LK-2136280	Moladanda	LK-2	LK-21	LK-2136	EC-04J	148	7.275873846938774	80.56471463265305
LK-2136330	Moragolla Mahakanda	LK-2	LK-21	LK-2136	EC-04J	200	7.265448260273973	80.48744341095889
LK-2136085	Pelawa Pahalagama	LK-2	LK-21	LK-2136	EC-04J	137	7.3008014285714316	80.57687295918365
LK-2136180	Motana Dekinda	LK-2	LK-21	LK-2136	EC-04J	199	7.275088555555556	80.48371014814815
LK-2136350	Mudaliwatta	LK-2	LK-21	LK-2136	EC-04J	193	7.258573819148941	80.51397359574466
LK-2136130	Munwathugoda	LK-2	LK-21	LK-2136	EC-04J	162	7.286793129032258	80.53224290322584
LK-2112085	Eriyagasthenna	LK-2	LK-21	LK-2112	EC-04C	597	7.3435280166666645	80.69132131666667
LK-2136115	Pahala Dodamwala	LK-2	LK-21	LK-2136	EC-04J	156	7.288069483870967	80.55144186021505
LK-2136345	Pahala Mudaliwatta	LK-2	LK-21	LK-2136	EC-04J	194	7.264062814432993	80.5079750515464
LK-2136200	Pahala Rathmeewala	LK-2	LK-21	LK-2136	EC-04J	197	7.276076483146067	80.5118358539326
LK-2136015	Pahala Yatigammana	LK-2	LK-21	LK-2136	EC-04J	184	7.295763819444444	80.49572480555554
LK-2136355	Panabokka	LK-2	LK-21	LK-2136	EC-04J	210	7.2613029682539665	80.52098230158731
LK-2136235	Parakatawella	LK-2	LK-21	LK-2136	EC-04J	181	7.279838486111111	80.54509961111111
LK-2136395	Pilapitiya	LK-2	LK-21	LK-2136	EC-04J	126	7.275654509259261	80.57699035185188
LK-2112240	Kahalla	LK-2	LK-21	LK-2112	EC-04C	605	7.333377788732397	80.63296060563378
LK-2136455	Pilimathalawa	LK-2	LK-21	LK-2136	EC-04J	172	7.261911385964913	80.55219294736841
LK-2136165	Pottepitiya	LK-2	LK-21	LK-2136	EC-04J	185	7.288440712643678	80.49566996551717
LK-2136385	Ranawana	LK-2	LK-21	LK-2136	EC-04J	150	7.269076634146342	80.56664060975609
LK-2136230	Siyambalagoda	LK-2	LK-21	LK-2136	EC-04J	163	7.279874912500003	80.54074252499998
LK-2136270	Sooriyagoda	LK-2	LK-21	LK-2136	EC-04J	127	7.282653049180328	80.57272199999997
LK-2136025	Thismada	LK-2	LK-21	LK-2136	EC-04J	219	7.301103746666672	80.50517442666668
LK-2136420	Uda Eriyagama East	LK-2	LK-21	LK-2136	EC-04J	151	7.269344073170731	80.58886631707317
LK-2136035	Udawela Nadithalawa	LK-2	LK-21	LK-2136	EC-04J	177	7.296320915254236	80.5224149322034
LK-2136125	Udawela Pahalagama	LK-2	LK-21	LK-2136	EC-04J	179	7.2906983750000025	80.53588889583334
LK-2136040	Udawela Pallemaditta	LK-2	LK-21	LK-2136	EC-04J	178	7.299097464285714	80.53001226785712
LK-5112140	Arumugathan kudiyiruppu 2	LK-5	LK-51	LK-5112	EC-12B	189C	7.768347666666666	81.61868552941174
LK-2136135	Walgampaya	LK-2	LK-21	LK-2136	EC-04J	211	7.288420000000001	80.52753511475412
LK-2136210	Walgowwagoda	LK-2	LK-21	LK-2136	EC-04J	206	7.277155073170729	80.52363206097559
LK-2206035	Inamaluwa	LK-2	LK-22	LK-2206	EC-05A	E451	7.944631799065423	80.69771934112154
LK-2136045	Wathurakumbura	LK-2	LK-21	LK-2136	EC-04J	157	7.298776982758621	80.54154006896549
LK-2136075	Yahalathenna	LK-2	LK-21	LK-2136	EC-04J	140	7.312895681818182	80.5740021363636
LK-2136020	Yatigammana	LK-2	LK-21	LK-2136	EC-04J	183	7.2939323906250015	80.50145556250007
LK-1318180	Uduwara East	LK-1	LK-13	LK-1318	EC-03B	638A	6.635100462264149	80.07039738679241
LK-1309130	Kuda Uduwa	LK-1	LK-13	LK-1309	EC-03C	614C	6.746086562874246	80.0807242874251
LK-2221090	Aluthwela	LK-2	LK-22	LK-2221	EC-05B	E380B	7.5470797081081065	80.65005558378373
LK-2203120	Galapamula	LK-2	LK-22	LK-2203	EC-05A	E432H	7.782061428571428	80.58044302380952
LK-1224085	Boraliyawatha	LK-1	LK-12	LK-1224	EC-02H	228	7.10673081012658	80.02912612658227
LK-2221010	Gammaduwa	LK-2	LK-22	LK-2221	EC-05B	E381C	7.5832743072625775	80.69860539664805
LK-2221080	Hunukete	LK-2	LK-22	LK-2221	EC-05B	E384B	7.531614616279072	80.67024237209301
LK-2221030	Imbulgolla	LK-2	LK-22	LK-2221	EC-05B	E381B	7.575876403669722	80.66560557798167
LK-2221015	Kalugalthenna	LK-2	LK-22	LK-2221	EC-05B	E381A	7.565288118644066	80.69500302542377
LK-2221070	Kavudagammana	LK-2	LK-22	LK-2221	EC-05B	E384D	7.527691617647059	80.6873852352941
LK-2221025	Kosgolla	LK-2	LK-22	LK-2221	EC-05B	E381D	7.5697263917525754	80.6763623298969
LK-2221050	Palle Eswedduma	LK-2	LK-22	LK-2221	EC-05B	E384G	7.547784010869565	80.67527983695652
LK-2221005	Kumbaloluwa	LK-2	LK-22	LK-2221	EC-05B	E381	7.588243754385968	80.67264377192984
LK-2221020	Naguliyadda	LK-2	LK-22	LK-2221	EC-05B	E384C	7.563172321212116	80.68059934545452
LK-2203295	Madipola	LK-2	LK-22	LK-2203	EC-05A	E430A	7.6811507215189865	80.57628929113925
LK-2221060	Pussella	LK-2	LK-22	LK-2221	EC-05B	E384	7.556320016806722	80.68570299159663
LK-2221040	Raithalawa	LK-2	LK-22	LK-2221	EC-05B	E380	7.5579553164557	80.6605781265823
LK-2221065	Sirangahawatta	LK-2	LK-22	LK-2221	EC-05B	E384E	7.541581744444443	80.69257315555558
LK-2221045	Thibbatukanatha	LK-2	LK-22	LK-2221	EC-05B	E380C	7.554003202531645	80.66661117721515
LK-2148140	Pattiyagama Gabadama North	LK-2	LK-21	LK-2148	EC-04L	1045	7.15004819178082	80.71370456849311
LK-1318110	Weniwelpitiya	LK-1	LK-13	LK-1318	EC-03B	651A	6.663881357142854	80.04176319642859
LK-2148085	Wetakepotha	LK-2	LK-21	LK-2148	EC-04L	1034	7.175780196969697	80.71619090909093
LK-1309240	Kulupana	LK-1	LK-13	LK-1309	EC-03C	610	6.722893400000002	80.0404081272727
LK-1309150	Kumbuka East	LK-1	LK-13	LK-1309	EC-03C	607	6.751221039215688	80.02822191176475
LK-2206210	Angunawel Pelessa	LK-2	LK-22	LK-2206	EC-05A	E443B	7.814452719594593	80.74430783445955
LK-2206175	Dambulugama	LK-2	LK-22	LK-2206	EC-05A	E445F	7.88369134482758	80.64361075862064
LK-2133115	Narangoda	LK-2	LK-21	LK-2133	EC-04B	473	7.335563786885247	80.5578373934426
LK-2206115	Bulagala	LK-2	LK-22	LK-2206	EC-05A	E450B	7.897859519801974	80.65181594554457
LK-2206160	Athuparayaya	LK-2	LK-22	LK-2206	EC-05A	E445C	7.87576225910932	80.66578063562747
LK-2206090	Bellanneoya	LK-2	LK-22	LK-2206	EC-05A	E451A	7.917132756756757	80.69350345945944
LK-1309160	Kumbuka North	LK-1	LK-13	LK-1309	EC-03C	607C	6.747085097826088	80.01318951086961
LK-2206170	Dambulla Town	LK-2	LK-22	LK-2206	EC-05A	E445	7.869954284552846	80.64848771544709
LK-2203020	Ibbankatuwa	LK-2	LK-22	LK-2203	EC-05A	E439B	7.837047086021506	80.6309497849462
LK-2206030	Digampathaha	LK-2	LK-22	LK-2206	EC-05A	E453A	7.972998275590551	80.7202896614174
LK-2206105	Etawarahena	LK-2	LK-22	LK-2206	EC-05A	E451B	7.937164066666667	80.66953906666664
LK-2203205	Ihala Bambawa	LK-2	LK-22	LK-2203	EC-05A	E432D	7.74389579661017	80.57300894915257
LK-2206180	Haluapullana Wewa	LK-2	LK-22	LK-2206	EC-05A	E445E	7.874559168831163	80.6357773766234
LK-2145170	Moragolla	LK-2	LK-21	LK-2145	EC-04G	973	7.228173024390241	80.67858017073172
LK-2145005	Uduwelawatta Colony	LK-2	LK-21	LK-2145	EC-04G	954	7.257189646153846	80.63776847692309
LK-2206280	Etha Bandiwewa	LK-2	LK-22	LK-2206	EC-05A	E440A	7.780894871093749	80.62837642578121
LK-2206015	Gedigaswalana	LK-2	LK-22	LK-2206	EC-05A	E454	7.995571974358976	80.75866940170943
LK-2206135	Ihala Ereula	LK-2	LK-22	LK-2206	EC-05A	E446C	7.853982436090226	80.75259651127818
LK-1309155	Kumbuka South	LK-1	LK-13	LK-1309	EC-03C	607B	6.756413140186911	80.02452572897198
LK-2145330	Ududeniya Madige	LK-2	LK-21	LK-2145	EC-04G	1022	7.203883285714284	80.74862544642859
LK-2145025	Nehiniwela	LK-2	LK-21	LK-2145	EC-04G	962	7.254127640624997	80.66630920312498
LK-2145055	Pinnagolla	LK-2	LK-21	LK-2145	EC-04G	986	7.249512484374999	80.70123865625
LK-2206215	Kalogaha Ela	LK-2	LK-22	LK-2206	EC-05A	E446B	7.8302901762452155	80.69472880459763
LK-5239015	Akkaraipattu 8/3	LK-5	LK-52	LK-5239	EC-13D	AV/12	7.214432869565216	81.85114982608695
LK-2206220	Thittawelgolla	LK-2	LK-22	LK-2206	EC-05A	E444	7.828161008547009	80.67059631623928
LK-2227015	Palupitiya	LK-2	LK-22	LK-2227	EC-05B	E398H	7.6408911147540985	80.94086314754098
LK-2206205	Kalundewa Aluthgama	LK-2	LK-22	LK-2206	EC-05A	E443A	7.822213846153846	80.70407807692311
LK-1215415	Weediyawatta West	LK-1	LK-12	LK-1215	EC-02F	130/1	7.137066171428572	79.96616228571429
LK-2206255	Kalundewa Paranagama	LK-2	LK-22	LK-2206	EC-05A	E443	7.801552379310346	80.71170738423646
LK-2206250	Puwak Attawala	LK-2	LK-22	LK-2206	EC-05A	E441D	7.792673324561408	80.66967397368417
LK-1309165	Kumbuka West	LK-1	LK-13	LK-1309	EC-03C	607A	6.741577675000005	80.01859371249999
LK-2206125	Kandalama	LK-2	LK-22	LK-2206	EC-05A	E449	7.89483773782771	80.7061143258426
LK-2145140	Ratemulla	LK-2	LK-21	LK-2145	EC-04G	951	7.235566528169024	80.64712152112673
LK-1309295	Mahena	LK-1	LK-13	LK-1309	EC-03C	615B	6.708597180327865	80.05436943442623
LK-2206230	Kapuwatta	LK-2	LK-22	LK-2206	EC-05A	E444A	7.832566278301892	80.65334732075465
LK-2145175	Haputhale Pallegama	LK-2	LK-21	LK-2145	EC-04G	970	7.233209932432429	80.6850337972973
LK-2206050	Kimbissa	LK-2	LK-22	LK-2206	EC-05A	E452A	7.940506172131146	80.7281885409837
LK-1318170	Uduwara North	LK-1	LK-13	LK-1318	EC-03B	638B	6.639406000000005	80.05892594416241
LK-2145255	Letiyagolla	LK-2	LK-21	LK-2145	EC-04G	975	7.223187373626372	80.68629229670333
LK-2145245	Welegama	LK-2	LK-21	LK-2145	EC-04G	995	7.227085680412371	80.71419263917525
LK-1309135	Maha Uduwa	LK-1	LK-13	LK-1309	EC-03C	614B	6.760634091954024	80.06721051724139
LK-2206100	Welihena	LK-2	LK-22	LK-2206	EC-05A	E450C	7.914048673076924	80.66870911538462
LK-1309180	Meemana	LK-1	LK-13	LK-1309	EC-03C	611A	6.735216802083337	80.04497998958331
LK-2206235	Kiralagolla	LK-2	LK-22	LK-2206	EC-05A	E440B	7.8170945564516146	80.64803847580636
LK-2206025	Thalkote	LK-2	LK-22	LK-2206	EC-05A	E455A	7.965195619402984	80.74555775373136
LK-1224470	Embaraluwa North 1	LK-1	LK-12	LK-1224	EC-02H	242	7.032270430107528	80.01077263440861
LK-2233210	Kalalpitiya	LK-2	LK-22	LK-2233	EC-05D	E357A	7.425908524590163	80.61800545901643
LK-2206265	Kiralessa	LK-2	LK-22	LK-2206	EC-05A	E441C	7.78253571176471	80.66560205294118
LK-2103010	Meegahahena	LK-2	LK-21	LK-2103	EC-04A	379	7.40314460869565	80.47419742028984
LK-2206085	Kumbukkandanwala	LK-2	LK-22	LK-2206	EC-05A	E448	7.897847487179484	80.72683443589746
LK-2206285	Lenadora North	LK-2	LK-22	LK-2206	EC-05A	E441	7.76713202020202	80.66370484848485
LK-1224500	Embaraluwa South 1	LK-1	LK-12	LK-1224	EC-02H	242B	7.020566	80.01983813793105
LK-2206165	Pahala Wewa	LK-2	LK-22	LK-2206	EC-05A	E445D	7.8647071956521755	80.65880063043478
LK-1309205	Meewanapalana East	LK-1	LK-13	LK-1309	EC-03C	617	6.751449559210528	80.10019172368419
LK-2206130	Pahala Erevula	LK-2	LK-22	LK-2206	EC-05A	E446	7.849670473404256	80.70822157978718
LK-1224345	Galahitiyawa East	LK-1	LK-12	LK-1224	EC-02H	215B	7.063592488372092	79.95915862790697
LK-2206070	Mailattawa	LK-2	LK-22	LK-2206	EC-05A	E455D	7.948857003174599	80.78615436507924
LK-2203045	Bulanawewa	LK-2	LK-22	LK-2203	EC-05A	E437A	7.83361652	80.56075021999997
LK-2206225	Moragollewa	LK-2	LK-22	LK-2206	EC-05A	E444B	7.813857114999996	80.66004098499998
LK-2206295	Nayakumbura	LK-2	LK-22	LK-2206	EC-05A	E442	7.759437266666667	80.68822780606061
LK-5218075	Sammanthurai 09	LK-5	LK-52	LK-5218	EC-13B	81A	7.368128368421054	81.80128500000001
LK-2206110	Pallegama	LK-2	LK-22	LK-2206	EC-05A	E450	7.906096114583334	80.65493007291668
LK-2206060	Palutawa	LK-2	LK-22	LK-2206	EC-05A	E452	7.930742556149738	80.7344627058824
LK-1224505	Embaraluwa South 2	LK-1	LK-12	LK-1224	EC-02H	242C	7.019638122222226	80.00886077777783
LK-2206270	Pannampitiya	LK-2	LK-22	LK-2206	EC-05A	E441A	7.780753210227268	80.65824584659089
LK-2306115	Galauda South	LK-2	LK-23	LK-2306	EC-06C	489	7.1700317500000015	80.81564651562502
LK-1318175	Uduwara West	LK-1	LK-13	LK-1318	EC-03B	638	6.625304500000001	80.06507915217394
LK-2106095	Watagalathenna	LK-2	LK-21	LK-2106	EC-04B	522	7.410367067567565	80.57150408108105
LK-2206120	Pelvehera	LK-2	LK-22	LK-2206	EC-05A	E450A	7.89237054430379	80.66848198312238
LK-2206020	Pidurangala	LK-2	LK-22	LK-2206	EC-05A	E455C	7.972979870588235	80.76317090588238
LK-2206185	Pohoranwewa	LK-2	LK-22	LK-2206	EC-05A	E445B	7.860414455357139	80.63109839285717
LK-2206075	Pol Attawa	LK-2	LK-22	LK-2206	EC-05A	E455B	7.938591802325586	80.80458365503875
LK-2203280	Hewanwela	LK-2	LK-22	LK-2203	EC-05A	E429A	7.697216563218395	80.57865079310344
LK-5248120	Pothuvil 01 / Unit 1	LK-5	LK-52	LK-5248	EC-13D	P/01	6.873890666666668	81.83272063888886
LK-2206045	Pothana	LK-2	LK-22	LK-2206	EC-05A	E452C	7.932077858757054	80.720051
LK-1224390	Galloluwa	LK-1	LK-12	LK-1224	EC-02H	239B	7.048339943396225	80.0136978679245
LK-1336185	Athale	LK-1	LK-13	LK-1336	EC-03H	841	6.454055152380955	80.2751900857143
LK-2136310	Mamudawala	LK-2	LK-21	LK-2136	EC-04J	201	7.267057452830186	80.52228564150943
LK-2206195	Rathmalgaha Ela	LK-2	LK-22	LK-2206	EC-05A	E445A	7.847039094972068	80.66725722905024
LK-2206095	Rathmalkatuwa	LK-2	LK-22	LK-2206	EC-05A	E451C	7.907743096153846	80.68401221153846
LK-2206065	Sigiriya	LK-2	LK-22	LK-2206	EC-05A	E455	7.951508383928571	80.75088983928572
LK-5239010	Akkaraipattu 9	LK-5	LK-52	LK-5239	EC-13D	AP/22A	7.210715920000001	81.85552228
LK-2206155	Vilhatha	LK-2	LK-22	LK-2206	EC-05A	E446F	7.880881333333329	80.6833197441861
LK-2206260	Walgamwewa	LK-2	LK-22	LK-2206	EC-05A	E442A	7.783091380487807	80.68147186829269
LK-2203070	Kumbukgolla	LK-2	LK-22	LK-2203	EC-05A	E437B	7.815969253164559	80.56659539240509
LK-2206240	Wavulambe	LK-2	LK-22	LK-2206	EC-05A	E440C	7.799624619047623	80.62488009523805
LK-2106195	Waldeniya	LK-2	LK-21	LK-2106	EC-04B	504	7.3852440481927735	80.55753132530121
LK-2206275	Welamitiyawa	LK-2	LK-22	LK-2206	EC-05A	E440D	7.774385170329674	80.61523845054944
LK-2203010	Dewahoowa Colony 2	LK-2	LK-22	LK-2203	EC-05A	E437D	7.855685752577319	80.57018806185567
LK-2206140	Welangolla	LK-2	LK-22	LK-2206	EC-05A	E446D	7.8532393291139195	80.77308520886072
LK-2206145	Wewala Wewa	LK-2	LK-22	LK-2206	EC-05A	E447A	7.880919663934424	80.7898113606557
LK-6181165	Eriyagolla	LK-6	LK-61	LK-6181	EC-15J	1050	7.397516566666668	80.18674376666665
LK-2206150	Yakkuragala North	LK-2	LK-22	LK-2206	EC-05A	E446A	7.865791677083336	80.68978571874999
LK-2206200	Yakkuragala South	LK-2	LK-22	LK-2206	EC-05A	E446E	7.857210625850347	80.6859877006803
LK-2106335	Kaluwana North	LK-2	LK-21	LK-2106	EC-04B	556	7.353369712121216	80.59946784848485
LK-2203040	Dewahoowa Colony 1	LK-2	LK-22	LK-2203	EC-05A	E437C	7.841711188034192	80.56720396581193
LK-2206190	Yapagama	LK-2	LK-22	LK-2206	EC-05A	E445G	7.847732959731545	80.64633474496644
LK-2203095	Aluthwewa	LK-2	LK-22	LK-2203	EC-05A	E436	7.788864877358492	80.51434037735847
LK-2203100	Bambaragaswewa	LK-2	LK-22	LK-2203	EC-05A	E435	7.784277440944883	80.54594363779528
LK-2203235	Beligamuwa	LK-2	LK-22	LK-2203	EC-05A	E431	7.725459715384615	80.55207864615384
LK-2203105	Beliyakanda	LK-2	LK-22	LK-2203	EC-05A	E437	7.803672859259262	80.5583325703704
LK-2103100	Galagedara West	LK-2	LK-21	LK-2103	EC-04A	301	7.369900699999999	80.52105188571427
LK-2218175	Kandegedara	LK-2	LK-22	LK-2218	EC-05C	E351	7.473988108108111	80.60436978378375
LK-2203200	Dambagolla	LK-2	LK-22	LK-2203	EC-05A	E434B	7.752169701612904	80.59068193548383
LK-2203150	Dambawatawana	LK-2	LK-22	LK-2203	EC-05A	E432G	7.772116913580247	80.56238499999999
LK-2203125	Damunumulla	LK-2	LK-22	LK-2203	EC-05A	E432A	7.784178714285712	80.56868558730162
LK-2203225	Divulgaskotuwa	LK-2	LK-22	LK-2203	EC-05A	E431D	7.736905804347834	80.5546319130435
LK-2203035	Dandubendiruppa	LK-2	LK-22	LK-2203	EC-05A	E438	7.850254335664339	80.60481390209789
LK-2203195	Danduyaya	LK-2	LK-22	LK-2203	EC-05A	E432C	7.755380618421056	80.57139721052634
LK-2203260	Dembawa	LK-2	LK-22	LK-2203	EC-05A	E430	7.70705310606061	80.56878966666667
LK-1224285	Galthotamulla	LK-1	LK-12	LK-1224	EC-02H	230C	7.087596621212122	80.03890528787878
LK-5218150	Block 'J' West 01	LK-5	LK-52	LK-5218	EC-13B	79A	7.3499721666666655	81.79841423333332
LK-1309200	Meewanapalana West	LK-1	LK-13	LK-1309	EC-03C	617B	6.751736117283947	80.09458116666667
LK-2203230	Hathadukkuwa	LK-2	LK-22	LK-2203	EC-05A	E431B	7.717899240816324	80.54589578775506
LK-2203290	Kendangamuwa	LK-2	LK-22	LK-2203	EC-05A	E430C	7.679827524475521	80.56084641258741
LK-2203075	Kosgahahinna	LK-2	LK-22	LK-2203	EC-05A	E436D	7.82113157446809	80.54621571276597
LK-2203180	Kospotha	LK-2	LK-22	LK-2203	EC-05A	E431C	7.753604828947371	80.54270713157898
LK-2203015	Makulugaswewa	LK-2	LK-22	LK-2203	EC-05A	E438A	7.846368623853213	80.58094008256882
LK-2203220	Medabedda North	LK-2	LK-22	LK-2203	EC-05A	E428B	7.729088769230768	80.57162205128199
LK-1224270	Gampaha Aluthgama East	LK-1	LK-12	LK-1224	EC-02H	225B	7.087020939393938	80.02032706060606
LK-2203240	Medabedda South	LK-2	LK-22	LK-2203	EC-05A	E428C	7.716357351063828	80.57417252127662
LK-2203055	Meewalapathaha	LK-2	LK-22	LK-2203	EC-05A	E433D	7.8142910441176445	80.60155882352943
LK-2203085	Moragolla	LK-2	LK-22	LK-2203	EC-05A	E436A	7.816697395833331	80.52543417708333
LK-2103265	Niyangoda	LK-2	LK-21	LK-2103	EC-04A	358	7.348754682539683	80.55012433333336
LK-2203165	Nabadagahawatta	LK-2	LK-22	LK-2203	EC-05A	E434	7.761539319444442	80.5832159861111
LK-2203190	Pahala Bambawa	LK-2	LK-22	LK-2203	EC-05A	E432E	7.750138020833336	80.56763122916665
LK-2309120	Wewakele	LK-2	LK-23	LK-2309	EC-06D	513C	7.125146796875003	80.84714706249997
LK-1224070	Gampaha Aluthgama North	LK-1	LK-12	LK-1224	EC-02H	225A	7.102099833333336	80.01683823333337
LK-2203050	Pahala Diggala	LK-2	LK-22	LK-2203	EC-05A	E438B	7.83669321538462	80.59155837692315
LK-2203060	Pahala Wewa	LK-2	LK-22	LK-2203	EC-05A	E439A	7.797288898648648	80.60792141891905
LK-2203255	Palapathwala	LK-2	LK-22	LK-2203	EC-05A	E427B	7.724954857142857	80.61156257142858
LK-2203175	Pathkolagolla	LK-2	LK-22	LK-2203	EC-05A	E432B	7.76088517948718	80.55951620512819
LK-2103180	Kinigama East	LK-2	LK-21	LK-2103	EC-04A	316	7.370549154929579	80.48232170422534
LK-2203130	Pattiwela	LK-2	LK-22	LK-2203	EC-05A	E432F	7.786649284671531	80.55498318978103
LK-2203185	Ranwediyawa	LK-2	LK-22	LK-2203	EC-05A	E432I	7.747893645833336	80.55565908333334
LK-2103300	Udahenepola	LK-2	LK-21	LK-2103	EC-04A	287	7.339065574712642	80.53097235632185
LK-1318215	Yatawara North	LK-1	LK-13	LK-1318	EC-03B	640	6.601863033333332	80.03702040000003
LK-2203090	Pibidunugama	LK-2	LK-22	LK-2203	EC-05A	E436B	7.814924423076924	80.51070964615383
LK-2203215	Pihilyaya	LK-2	LK-22	LK-2203	EC-05A	E427C	7.735876623655915	80.58869423655915
LK-2203155	Puwakpitiya	LK-2	LK-22	LK-2203	EC-05A	E433B	7.771242829787234	80.5761910638298
LK-2203080	Ralalerotawewa	LK-2	LK-22	LK-2203	EC-05A	E436C	7.8183017176470635	80.53747955294119
LK-2203110	Silwathgama	LK-2	LK-22	LK-2203	EC-05A	E433C	7.788384821052631	80.59917633684215
LK-2118110	Dambagahapitiya	LK-2	LK-21	LK-2118	EC-04D	883	7.346459495412844	80.8962580550459
LK-2203210	Siyambalagahawela	LK-2	LK-22	LK-2203	EC-05A	E427A	7.741910137614678	80.60491122935778
LK-2203065	Yatigalpotta	LK-2	LK-22	LK-2203	EC-05A	E433A	7.792792151898731	80.59004108860762
LK-2203270	Yatiwehera	LK-2	LK-22	LK-2203	EC-05A	E428A	7.7143524035087765	80.58639998245616
LK-2203025	Thalakiriyagama	LK-2	LK-22	LK-2203	EC-05A	E439	7.824265025252525	80.61861627272735
LK-2203030	Thennakonpura	LK-2	LK-22	LK-2203	EC-05A	E438C	7.836795641304349	80.6137466195652
LK-1309220	Midellamulahena	LK-1	LK-13	LK-1309	EC-03C	616E	6.732910992647057	80.07528311764705
LK-2203115	Walaswewa	LK-2	LK-22	LK-2203	EC-05A	E433	7.772692703125001	80.59567342187499
LK-2203285	Wegodapola	LK-2	LK-22	LK-2203	EC-05A	E430B	7.6937280442477896	80.56197875221243
LK-1318200	Yatawara South	LK-1	LK-13	LK-1318	EC-03B	640A	6.601407315789474	80.04226428947372
LK-2203160	Weragalawatta	LK-2	LK-22	LK-2203	EC-05A	E434A	7.764151543209874	80.60049151851851
LK-1309215	Munagama East	LK-1	LK-13	LK-1309	EC-03C	616D	6.724183409836068	80.09042347540985
LK-2103295	Kuragama	LK-2	LK-21	LK-2103	EC-04A	365	7.352779404255321	80.51799821276596
LK-2224065	Dammanthenna	LK-2	LK-22	LK-2224	EC-05B	E399A	7.589746965277781	80.75046078472222
LK-1309080	Olaboduwa South	LK-1	LK-13	LK-1309	EC-03C	605	6.765614584415587	80.02540044155845
LK-2224075	Divulgas Pathana	LK-2	LK-22	LK-2224	EC-05B	E400A	7.572522433497539	80.72819665517243
LK-2218060	Dombawela	LK-2	LK-22	LK-2218	EC-05C	E329	7.556770177215192	80.61810853164556
LK-1309045	Olaboduwa North	LK-1	LK-13	LK-1309	EC-03C	605B	6.773413165137612	80.02207478899085
LK-2224035	Dasgiriya	LK-2	LK-22	LK-2224	EC-05B	E402A	7.620331045936392	80.83667109187276
LK-2224110	Gonawala	LK-2	LK-22	LK-2224	EC-05B	E397B	7.538830914285717	80.81559572857145
LK-2306135	Pallemaluwa	LK-2	LK-23	LK-2306	EC-06C	495C	7.177038515151512	80.77402212121216
LK-2148145	Pattiyagama Gabadama South	LK-2	LK-21	LK-2148	EC-04L	1044	7.145318474999998	80.71543411500005
LK-1224380	Godagedara	LK-1	LK-12	LK-1224	EC-02H	232A	7.062741506024097	80.02324659036144
LK-1224030	Gonagaha i	LK-1	LK-12	LK-1224	EC-02H	219	7.097871265306123	79.95151131632655
LK-6163375	Ranthetikanda	LK-6	LK-61	LK-6163	EC-15N	600	7.4799849677419346	80.49573809677422
LK-1309225	Ovitiyagala	LK-1	LK-13	LK-1309	EC-03C	616A	6.73047250877193	80.06701189473681
LK-2224130	Galgedawala	LK-2	LK-22	LK-2224	EC-05B	E396A	7.572779235000002	80.86181737000001
LK-1224020	Gonagaha II	LK-1	LK-12	LK-1224	EC-02H	219A	7.096878339285707	79.93880614285713
LK-2224015	Dewaladeniya	LK-2	LK-22	LK-2224	EC-05B	E402H	7.6539223157894725	80.82970692982455
LK-2209105	Meegaha Ela	LK-2	LK-22	LK-2209	EC-05B	E412F	7.704705693548391	80.66575385483873
LK-2224070	Gangalapuwakpitiya	LK-2	LK-22	LK-2224	EC-05B	E400	7.579142976190485	80.7474159619048
LK-2224135	Guruwela	LK-2	LK-22	LK-2224	EC-05B	E397E	7.5472459492753625	80.86593293478263
LK-2218210	Dodamdeniya	LK-2	LK-22	LK-2218	EC-05C	E351A	7.46423261038961	80.60467888311688
LK-1224175	Horagolla North	LK-1	LK-12	LK-1224	EC-02H	216	7.0755432258064515	79.9633973387097
LK-2224085	Kahagala	LK-2	LK-22	LK-2224	EC-05B	E388	7.562892364864865	80.77613749324328
LK-2134085	Pallepola	LK-2	LK-21	LK-2134	EC-04A	329	7.340781137931034	80.45481072413791
LK-2224120	Miniranketiya	LK-2	LK-22	LK-2224	EC-05B	E397D	7.539866888888891	80.84241181111116
LK-2224145	Halminiya	LK-2	LK-22	LK-2224	EC-05B	E392	7.498248367132866	80.82338670629369
LK-1224400	Ihala Imbulgoda North	LK-1	LK-12	LK-1224	EC-02H	240	7.049128337837836	80.00204349999998
LK-2306600	Wewathenna	LK-2	LK-23	LK-2306	EC-06C	512F	7.0612901666666685	80.79192119444443
LK-2224030	Hattota Amuna	LK-2	LK-22	LK-2224	EC-05B	E402	7.629902450892856	80.81645628125001
LK-2224090	Ilukkumbura	LK-2	LK-22	LK-2224	EC-05B	E388A	7.547909906976745	80.77361699224804
LK-2224020	Kaluganga	LK-2	LK-22	LK-2224	EC-05B	E402F	7.640904972602732	80.83371940182649
LK-2118220	Nugethenna East	LK-2	LK-21	LK-2118	EC-04D	842	7.28906943333333	80.85791750000001
LK-2224160	Meda Ela	LK-2	LK-22	LK-2224	EC-05B	E387A	7.527629627659577	80.76510303191488
LK-2224010	Kandepitawela	LK-2	LK-22	LK-2224	EC-05B	E402G	7.64295343292683	80.80967390243897
LK-2224105	Karandamulla	LK-2	LK-22	LK-2224	EC-05B	E397C	7.553540818965518	80.8205734913793
LK-2224140	Kivulawadiya	LK-2	LK-22	LK-2224	EC-05B	E392A	7.489133910179637	80.87349638922156
LK-2224115	Laggala Pallegama	LK-2	LK-22	LK-2224	EC-05B	E397	7.541308380952376	80.83186195238098
LK-2224185	Lakegala	LK-2	LK-22	LK-2224	EC-05B	E391A	7.481165165517238	80.84052417241378
LK-2224055	Leloya	LK-2	LK-22	LK-2224	EC-05B	E396	7.582807059880235	80.81385316766467
LK-2224095	Mahalakotuwa	LK-2	LK-22	LK-2224	EC-05B	E387	7.5413412792792744	80.77377772972967
LK-2224180	Narangamuwa	LK-2	LK-22	LK-2224	EC-05B	E391	7.480689093749997	80.83290317187495
LK-2224155	Rambukoluwa	LK-2	LK-22	LK-2224	EC-05B	E389	7.514288259999998	80.78719500000004
LK-2218070	Eriyagolla	LK-2	LK-22	LK-2218	EC-05C	E325A	7.553985541284407	80.63842744954128
LK-6160060	Ellagonna	LK-6	LK-61	LK-6160	EC-15M	690	7.459323693548387	80.44529980645159
LK-2224080	Pitawala	LK-2	LK-22	LK-2224	EC-05B	E385	7.53430377948718	80.74524764102567
LK-2224060	Pottatawela	LK-2	LK-22	LK-2224	EC-05B	E399	7.593113130841128	80.7735674906542
LK-1336170	Addaragoda	LK-1	LK-13	LK-1336	EC-03H	840B	6.463943216346156	80.23898392788459
LK-2148090	Pattiyagama Pallegama	LK-2	LK-21	LK-2148	EC-04L	1033	7.171246375	80.72610446428577
LK-2142085	Atuwewatta	LK-2	LK-21	LK-2142	EC-04L	1151	7.168192083333332	80.58166747222221
LK-5118050	Jayanthipuram	LK-5	LK-51	LK-5118	EC-12C	176G	7.7341092499999995	81.68506099999999
LK-2224175	Ranamuregama	LK-2	LK-22	LK-2224	EC-05B	E392B	7.490932413461547	80.82748884615386
LK-2218225	Diyabubula	LK-2	LK-22	LK-2218	EC-05C	E352F	7.461168133333334	80.62394343333331
LK-2224165	Rathninda	LK-2	LK-22	LK-2224	EC-05B	E386A	7.498188432692305	80.74521454487183
LK-2224050	Weliwaranagolla	LK-2	LK-22	LK-2224	EC-05B	E402C	7.6029450280373805	80.81583893457945
LK-2224045	Wellewala	LK-2	LK-22	LK-2224	EC-05B	E402D	7.610185797101448	80.81609549275363
LK-2218140	Aluvihare	LK-2	LK-22	LK-2218	EC-05C	E327	7.49726821323529	80.61656626470595
LK-1309015	Pahala Millewa South	LK-1	LK-13	LK-1309	EC-03C	628	6.793419749999998	80.08369399999998
LK-2151005	Egoda Kalugamuwa	LK-2	LK-21	LK-2151	EC-04M	1159	7.205936290322579	80.60393685483874
LK-2218040	Ankanda	LK-2	LK-22	LK-2218	EC-05C	E324B	7.582155355329951	80.64519429949237
LK-2218135	Beridewala	LK-2	LK-22	LK-2218	EC-05C	E327A	7.505363608247426	80.61133053608249
LK-2218165	Bogahakotuwa	LK-2	LK-22	LK-2218	EC-05C	E352E	7.476800467741937	80.6185319193548
LK-2218130	Dorakumbura	LK-2	LK-22	LK-2218	EC-05C	E326	7.509686394366195	80.6329207816901
LK-2218125	Dunkalawatta	LK-2	LK-22	LK-2218	EC-05C	E326A	7.5176349186046485	80.62755959302322
LK-2218090	Ellepola	LK-2	LK-22	LK-2218	EC-05C	E328A	7.537969127272729	80.6168832090909
LK-2209120	Millagahamula Thenna	LK-2	LK-22	LK-2209	EC-05B	E409B	7.692902981818181	80.71292034545453
LK-2218080	Golahenwatta	LK-2	LK-22	LK-2218	EC-05C	E328B	7.547064094339625	80.62460618867922
LK-2218200	Gongawela	LK-2	LK-22	LK-2218	EC-05C	E352B	7.467108421052633	80.62649142105265
LK-2218075	Imbulandanda	LK-2	LK-22	LK-2218	EC-05C	E325	7.539233305785128	80.6346171735537
LK-2218065	Kawatayamuna	LK-2	LK-22	LK-2218	EC-05C	E330B	7.554439260869565	80.62563458695651
LK-2218035	Hathamunagala	LK-2	LK-22	LK-2218	EC-05C	E324C	7.591489825806457	80.65156712258057
LK-2218220	Hulangamuwa North	LK-2	LK-22	LK-2218	EC-05C	E353B	7.463554147540983	80.61562896721304
LK-2218215	Hulangamuwa South	LK-2	LK-22	LK-2218	EC-05C	E353	7.459450703296706	80.60817097802197
LK-2218155	Kaludewala	LK-2	LK-22	LK-2218	EC-05C	E350C	7.48294796825397	80.6302135238095
LK-2218120	Kirigalpotta	LK-2	LK-22	LK-2218	EC-05C	E328C	7.51259621153846	80.61803816346153
LK-2151075	Keerapane	LK-2	LK-21	LK-2151	EC-04M	1129	7.166780069767444	80.56375879069768
LK-2218255	Koombiyangoda	LK-2	LK-22	LK-2218	EC-05C	E348A	7.452422500000002	80.6140293125
LK-2218100	Kottagoda	LK-2	LK-22	LK-2218	EC-05C	E325B	7.53490168932039	80.64158096116508
LK-2151015	Kirinda	LK-2	LK-21	LK-2151	EC-04M	1123	7.186584122641513	80.5816023207547
LK-2218020	Madawala	LK-2	LK-22	LK-2218	EC-05C	E322	7.611051941176471	80.65190926890756
LK-2218230	Maligathenna	LK-2	LK-22	LK-2218	EC-05C	E352C	7.456736861702127	80.62353880851063
LK-2142070	Doluwa	LK-2	LK-21	LK-2142	EC-04L	1155	7.18491621590909	80.6100390227273
LK-2218010	Madawala Ulpatha	LK-2	LK-22	LK-2218	EC-05C	E322C	7.622502227272725	80.6440397121212
LK-2218105	Owala Polwatta	LK-2	LK-22	LK-2218	EC-05C	E326B	7.521755849999996	80.63936674999997
LK-2218110	Makulgaharuppa	LK-2	LK-22	LK-2218	EC-05C	E328E	7.523735708333333	80.62374997916667
LK-2218180	Malwatta	LK-2	LK-22	LK-2218	EC-05C	E352D	7.472801072727274	80.61636469090907
LK-2218160	Mandandawela	LK-2	LK-22	LK-2218	EC-05C	E350A	7.482458101449272	80.62286581159417
LK-1309075	Palannoruwa	LK-1	LK-13	LK-1309	EC-03C	604	6.761458853658539	80.01625656097566
LK-2218195	Oya Pahala	LK-2	LK-22	LK-2218	EC-05C	E352H	7.472352283018871	80.62956947169812
LK-2218030	Moragahamada	LK-2	LK-22	LK-2218	EC-05C	E324A	7.597000277027024	80.65757354729726
LK-1224325	Ihala Yagoda North	LK-1	LK-12	LK-1224	EC-02H	235B	7.065530525773199	79.99073138144331
LK-2218005	Narangamuwa	LK-2	LK-22	LK-2218	EC-05C	E323	7.6165848653846115	80.63114277884614
LK-2309210	Wewathenna	LK-2	LK-23	LK-2309	EC-06D	523B	7.075877622950821	80.91813449180329
LK-2218095	Palapathwala	LK-2	LK-22	LK-2218	EC-05C	E328D	7.529712503649636	80.62841650364959
LK-5233110	Addalachchenai 03	LK-5	LK-52	LK-5233	EC-13D	AD/30A	7.2502907619047585	81.85695571428572
LK-2218085	Parana Dombawela	LK-2	LK-22	LK-2218	EC-05C	E329A	7.547808927272729	80.61579897272728
LK-2218150	Parawatta	LK-2	LK-22	LK-2218	EC-05C	E350B	7.491142850000002	80.63129363333333
LK-2306110	Happawara	LK-2	LK-23	LK-2306	EC-06C	491D	7.166174942028986	80.8346842463768
LK-2218045	Puwakpitiya	LK-2	LK-22	LK-2218	EC-05C	E324	7.572545961538461	80.63745934134613
LK-2218025	Rajjammana	LK-2	LK-22	LK-2218	EC-05C	E322A	7.616875228260868	80.6594360869565
LK-1224065	Ihalagama East	LK-1	LK-12	LK-1224	EC-02H	224A	7.099912808080812	80.00663679797981
